rosbagTimestamp,linear,x,y,z,angular,x,y,z
1581525921233154323,,-0.0342929288857,0.0434967097553,1.2016392227,,0.0,0.0,0.000486597786034
1581525921233179547,,-0.0294225321353,0.038731311767,1.2016392227,,0.0,0.0,37.6926429292
1581525921243268135,,-0.0573443134532,-0.0150015378275,1.20003483761,,0.0,0.0,1.57339332492
1581525921253251210,,-0.0598898304172,-0.0164299680088,1.19843317772,,0.0,0.0,1.58305818221
1581525921263219679,,-0.0595995302151,-0.015281741447,1.19681073147,,0.0,0.0,1.58218017719
1581525921273467233,,-0.058405666163,-0.0162224707257,1.19516113119,,0.0,0.0,1.58352586574
1581525921283565722,,-0.0590555318184,-0.0166737518984,1.19351966953,,0.0,0.0,1.57656938024
1581525921293741674,,-0.0598364551395,-0.0162330041888,1.19187784616,,0.0,0.0,1.56980581496
1581525921303751095,,-0.0598308932517,-0.0174289050524,1.19015857121,,0.0,0.0,1.57010756715
1581525921313892910,,-0.0585915456752,-0.0175236027583,1.18837070988,,0.0,0.0,1.55369403892
1581525921324068978,,-0.0599710757794,-0.0177558171882,1.18659488569,,0.0,0.0,1.54619167681
1581525921333851421,,-0.059278188976,-0.0159476763084,1.18482155793,,0.0,0.0,1.52057879887
1581525921343873283,,-0.0595372397359,-0.0176409711926,1.18306192539,,0.0,0.0,1.52943214278
1581525921353876062,,-0.0596968267567,-0.0180521422949,1.18113757017,,0.0,0.0,1.50773092931
1581525921364218381,,-0.0590253183758,-0.0181419279571,1.17942908345,,0.0,0.0,1.50626857341
1581525921373638085,,-0.0610838918674,-0.0183559327085,1.17718458457,,0.0,0.0,1.48953247869
1581525921384339521,,-0.0590115717625,-0.0169134969986,1.17510542956,,0.0,0.0,1.44280388015
1581525921394055889,,-0.0604357829212,-0.0183049582012,1.17312855317,,0.0,0.0,1.46702137136
1581525921404024134,,-0.0612428509914,-0.0183679940645,1.17107279364,,0.0,0.0,1.45127016238
1581525921413986979,,-0.0585816549891,-0.0181466526329,1.16896570914,,0.0,0.0,1.42950274345
1581525921424009428,,-0.0609449184774,-0.0173776804316,1.1668441298,,0.0,0.0,1.41255153927
1581525921433762813,,-0.0599600923963,-0.0178530084313,1.16463891509,,0.0,0.0,1.4069530142
1581525921443611346,,-0.0580288789873,-0.0181080536781,1.16244978855,,0.0,0.0,1.39209352579
1581525921453552345,,-0.0608388590732,-0.0181450284228,1.16032941268,,0.0,0.0,1.38090487186
1581525921463629520,,-0.0609930386489,-0.0180499051517,1.15796640846,,0.0,0.0,1.35670662892
1581525921473830597,,-0.0581330234579,-0.0167858756938,1.15578823708,,0.0,0.0,1.34522031081
1581525921483514703,,-0.0591874356399,-0.0181497064499,1.15355118198,,0.0,0.0,1.33208576797
1581525921493712951,,-0.0595071784978,-0.0174730362547,1.15124639624,,0.0,0.0,1.31339341513
1581525921503820788,,-0.0606347642434,-0.0173402637832,1.14893090103,,0.0,0.0,1.30384620256
1581525921513946239,,-0.0564216824425,-0.0174036816671,1.14661930781,,0.0,0.0,1.28535143119
1581525921524325064,,-0.0590269645554,-0.0181405004113,1.1443147681,,0.0,0.0,1.2787516931
1581525921534061800,,-0.059722320718,-0.0173575670773,1.14200066596,,0.0,0.0,1.24555324792
1581525921543808659,,-0.0574686001771,-0.0176735141896,1.13966482841,,0.0,0.0,1.25933732008
1581525921554079878,,-0.0575734795763,-0.0172374552608,1.13723660508,,0.0,0.0,1.22773272043
1581525921564188368,,-0.059185622502,-0.0181027020591,1.13488566876,,0.0,0.0,1.22756414894
1581525921574005853,,-0.0567705351644,-0.0176392475605,1.13252936996,,0.0,0.0,1.21509136022
1581525921583795338,,-0.056016212496,-0.0172058136747,1.13009865916,,0.0,0.0,1.19803802354
1581525921593940251,,-0.0577879556023,-0.017685709917,1.12764670749,,0.0,0.0,1.1737973091
1581525921603999451,,-0.0568695780316,-0.0173745030881,1.12517430997,,0.0,0.0,1.17122063945
1581525921613805164,,-0.0550062234454,-0.0172605807829,1.12274172164,,0.0,0.0,1.16338053214
1581525921623614771,,-0.0553849872462,-0.0181937359476,1.12034456299,,0.0,0.0,1.16467813802
1581525921633525842,,-0.0558103913979,-0.0176738539759,1.11789361412,,0.0,0.0,1.12890812858
1581525921644110267,,-0.0542275282776,-0.0154164723378,1.1153527557,,0.0,0.0,1.08849187536
1581525921653813525,,-0.0539702794982,-0.0179715967797,1.11275996002,,0.0,0.0,1.12612179404
1581525921663969446,,-0.0536457745293,-0.0172748178858,1.11034228345,,0.0,0.0,1.09538001539
1581525921674279576,,-0.0535896293207,-0.0173877030405,1.10781126485,,0.0,0.0,1.10202105476
1581525921683920522,,-0.0507655850821,-0.0172183435595,1.10530563874,,0.0,0.0,1.07555377795
1581525921694068923,,-0.0520175425289,-0.0175342673928,1.10276968268,,0.0,0.0,1.0706783193
1581525921704366089,,-0.0532133114826,-0.016249222614,1.10017006046,,0.0,0.0,1.04397418032
1581525921714035749,,-0.0481007242067,-0.0176144435386,1.0976900823,,0.0,0.0,1.06167247537
1581525921723920161,,-0.0514319507437,-0.0178989418854,1.09511628265,,0.0,0.0,1.04529400023
1581525921733861537,,-0.0515542508417,-0.0169483520204,1.09245879733,,0.0,0.0,1.02513837716
1581525921743853913,,-0.0471272342755,-0.0165860087459,1.08986507676,,0.0,0.0,1.01989170648
1581525921753965711,,-0.0498470820367,-0.017081604471,1.0872231133,,0.0,0.0,1.00208475296
1581525921764197869,,-0.0531697709224,-0.0165945306822,1.08504350515,,0.0,0.0,0.973480984073
1581525921774173986,,-0.04208675781,-0.0172481519335,1.08203822437,,0.0,0.0,1.02083112123
1581525921784031085,,-0.0479519622414,-0.017375961977,1.07940354939,,0.0,0.0,0.982609846763
1581525921793812599,,-0.0462997066767,-0.0179875737871,1.07670763724,,0.0,0.0,0.971843229303
1581525921803924087,,-0.0470306794363,-0.0166302393005,1.0739254189,,0.0,0.0,0.968570675546
1581525921813944941,,-0.0448164228404,-0.0165432355952,1.07121193896,,0.0,0.0,0.953189395773
1581525921823959460,,-0.0439029708412,-0.017489689316,1.0683953679,,0.0,0.0,0.946101086368
1581525921834040781,,-0.0468271081661,-0.016340836174,1.06560830885,,0.0,0.0,0.931618502278
1581525921843990188,,-0.0426112258213,-0.0168410961964,1.06272051373,,0.0,0.0,0.938213971167
1581525921853741613,,-0.0424499916974,-0.0175823212614,1.05980013318,,0.0,0.0,0.921562819345
1581525921864099177,,-0.0444672549467,-0.0164219026593,1.05680897168,,0.0,0.0,0.903063885584
1581525921873812929,,-0.0421633334936,-0.0169328441408,1.05376537007,,0.0,0.0,0.915710992009
1581525921884124647,,-0.0404254032508,-0.0163344028006,1.05075928055,,0.0,0.0,0.898130869808
1581525921893939927,,-0.0416118636092,-0.0177370429591,1.04774468899,,0.0,0.0,0.891675612293
1581525921903942921,,-0.0424072868876,-0.0164008649953,1.0446772975,,0.0,0.0,0.88632490278
1581525921914109620,,-0.0388565058373,-0.0168605429053,1.04151628967,,0.0,0.0,0.878120064168
1581525921924177332,,-0.0402210437293,-0.0174767680029,1.03828818211,,0.0,0.0,0.867735028156
1581525921933965675,,-0.0398867256318,-0.0173145696913,1.03505860287,,0.0,0.0,0.86400033839
1581525921943965294,,-0.0372713192192,-0.0161641889469,1.03192437844,,0.0,0.0,0.85482168214
1581525921953960588,,-0.0385471693303,-0.017447364337,1.02873902092,,0.0,0.0,0.85433011159
1581525921963935848,,-0.038650355615,-0.0171203075142,1.02547803368,,0.0,0.0,0.835550467958
1581525921973960277,,-0.037399385528,-0.0169717622263,1.02218470638,,0.0,0.0,0.841469583538
1581525921983902039,,-0.0365037980581,-0.0176025110422,1.01885222956,,0.0,0.0,0.835407810526
1581525921994188087,,-0.0356944877943,-0.016225013517,1.01556553263,,0.0,0.0,0.809656157191
1581525922004243010,,-0.0365957727595,-0.0172044196401,1.0122236812,,0.0,0.0,0.829065403525
1581525922014753961,,-0.0371195387265,-0.0158953006375,1.00890485739,,0.0,0.0,0.787569538473
1581525922023911772,,-0.0335696017374,-0.0196296763263,1.00557628488,,0.0,0.0,0.839675232636
1581525922033612900,,-0.0355642304176,-0.0173805815143,1.00221613536,,0.0,0.0,0.811041685433
1581525922043321619,,-0.0250230566669,-0.0161461887049,0.998136325839,,0.0,0.0,0.802476606747
1581525922053315867,,-0.0427643997765,-0.0187265632219,0.995434798621,,0.0,0.0,0.78985264899
1581525922063256895,,-0.035862305999,-0.0181960494774,0.992061991335,,0.0,0.0,0.786535745369
1581525922073410017,,-0.0323228363653,-0.0171888247506,0.988715569021,,0.0,0.0,0.773182126112
1581525922083244890,,-0.0323171258115,-0.0167860300602,0.985346543541,,0.0,0.0,0.772325333602
1581525922093522011,,-0.0346780035447,-0.0180620463168,0.981975714847,,0.0,0.0,0.760316617706
1581525922103564970,,-0.0314213209462,-0.0168788571337,0.978548796701,,0.0,0.0,0.760009100404
1581525922113568548,,-0.0319811455954,-0.0172466133469,0.975176838289,,0.0,0.0,0.749601104796
1581525922123723536,,-0.0330331158118,-0.0182751824285,0.97183580042,,0.0,0.0,0.751135080466
1581525922134078455,,-0.0311448035906,-0.0175019045536,0.968516849997,,0.0,0.0,0.739416227016
1581525922143772865,,-0.0313345406799,-0.0171294967758,0.965183636747,,0.0,0.0,0.735021825988
1581525922153724834,,-0.0324854589538,-0.0181019397281,0.961786835713,,0.0,0.0,0.738923834899
1581525922163601197,,-0.0305011598339,-0.0179028607581,0.958402079743,,0.0,0.0,0.73461459118
1581525922173842009,,-0.0301483502251,-0.0170998047441,0.9551107503,,0.0,0.0,0.716780718529
1581525922184270079,,-0.0318803085104,-0.0175741000225,0.951803911372,,0.0,0.0,0.711709738619
1581525922193882333,,-0.0291129986975,-0.0183098824618,0.948415078044,,0.0,0.0,0.722423046774
1581525922203866579,,-0.0301665131994,-0.0180537297378,0.945144928089,,0.0,0.0,0.710677425968
1581525922214202349,,-0.0304009040926,-0.0175627350338,0.941773680855,,0.0,0.0,0.698346881238
1581525922223862574,,-0.0288853759213,-0.0188102721,0.938514363691,,0.0,0.0,0.707878362827
1581525922233932595,,-0.0290897916712,-0.0181426740077,0.935204384277,,0.0,0.0,0.695815481334
1581525922244119094,,-0.029833660232,-0.0176591046184,0.931994809134,,0.0,0.0,0.690820577544
1581525922253909090,,-0.0284779595911,-0.0177917151212,0.928662142599,,0.0,0.0,0.692369470155
1581525922264073425,,-0.0295428287261,-0.0182670016987,0.925456629727,,0.0,0.0,0.670794976457
1581525922273958690,,-0.0270268853699,-0.0184068823755,0.922174227502,,0.0,0.0,0.681971879928
1581525922283806136,,-0.030350388897,-0.0198545070161,0.918915687876,,0.0,0.0,0.693709360818
1581525922293652695,,-0.0274757052035,-0.0180268288908,0.915728540495,,0.0,0.0,0.669357674537
1581525922303691999,,-0.0268064210505,-0.0189675240062,0.912525934762,,0.0,0.0,0.667291976921
1581525922313669406,,-0.0304108680988,-0.0187314501997,0.909344816809,,0.0,0.0,0.658999206562
1581525922324180118,,-0.0261750753368,-0.0183579675944,0.906114691772,,0.0,0.0,0.659327020994
1581525922333873825,,-0.026422000102,-0.018422679859,0.902912966924,,0.0,0.0,0.652574806762
1581525922343610948,,-0.0297330097383,-0.0194796870553,0.899779193164,,0.0,0.0,0.655755905336
1581525922353552425,,-0.0267261614361,-0.0189895205645,0.896616451908,,0.0,0.0,0.650674156131
1581525922363724777,,-0.0253716515653,-0.0180203890718,0.893476411427,,0.0,0.0,0.636611265312
1581525922373635227,,-0.0280273062429,-0.0191869445424,0.890332377461,,0.0,0.0,0.638046026166
1581525922383825554,,-0.0275835803004,-0.0187900665881,0.887167413177,,0.0,0.0,0.635199178981
1581525922393802781,,-0.0256415290931,-0.0185253686298,0.884076483609,,0.0,0.0,0.626239252514
1581525922403685401,,-0.0274879967162,-0.0199861684181,0.880965868695,,0.0,0.0,0.636315475718
1581525922413774539,,-0.0277923543367,-0.018594099937,0.877867555153,,0.0,0.0,0.622605385451
1581525922423608961,,-0.0241806324832,-0.0185192490385,0.874771388853,,0.0,0.0,0.620579784942
1581525922433855012,,-0.02620998138,-0.0190962066916,0.871702307801,,0.0,0.0,0.611445760137
1581525922443841273,,-0.0274941058014,-0.0195032915834,0.868689132981,,0.0,0.0,0.621970477547
1581525922453803320,,-0.0254275210271,-0.0182589874627,0.865644366851,,0.0,0.0,0.61411546074
1581525922464014952,,-0.0263762091609,-0.019805250527,0.862629712222,,0.0,0.0,0.612617645182
1581525922473893071,,-0.0243816995724,-0.0202518446018,0.859571558764,,0.0,0.0,0.607479434322
1581525922483716825,,-0.0273372051659,-0.0187483816049,0.856574290369,,0.0,0.0,0.606406876415
1581525922493843402,,-0.0249235296026,-0.018277682638,0.853632449246,,0.0,0.0,0.594909054799
1581525922503950336,,-0.0255359228098,-0.0203155875928,0.850687685963,,0.0,0.0,0.59822282769
1581525922514148754,,-0.0262345122446,-0.0190567727354,0.847773493753,,0.0,0.0,0.590725351831
1581525922523966961,,-0.0230914081013,-0.0180843131216,0.844850018614,,0.0,0.0,0.586514523908
1581525922533957504,,-0.0247977044581,-0.0203145443908,0.841865354425,,0.0,0.0,0.59943759548
1581525922543889976,,-0.0268892263542,-0.0185457006265,0.839018373324,,0.0,0.0,0.578255688597
1581525922553773233,,-0.02422139298,-0.0187339181263,0.836169307214,,0.0,0.0,0.587010261739
1581525922564037761,,-0.0236979204471,-0.0198867444147,0.833315752551,,0.0,0.0,0.581890993975
1581525922574004703,,-0.0244082429712,-0.0192876054771,0.830500557893,,0.0,0.0,0.579753709047
1581525922584089994,,-0.0246686113434,-0.018802832902,0.827646358355,,0.0,0.0,0.57458476298
1581525922594204691,,-0.0246174459045,-0.0193352819231,0.824811818596,,0.0,0.0,0.570164745005
1581525922603758633,,-0.0237022464268,-0.0197179112106,0.821992186579,,0.0,0.0,0.575369595843
1581525922613858411,,-0.0249686584501,-0.0177662853798,0.819260586495,,0.0,0.0,0.564426968053
1581525922623923613,,-0.0236552495011,-0.0202829272839,0.816539069502,,0.0,0.0,0.56124128587
1581525922634260144,,-0.0231581162123,-0.0184423168981,0.813738241441,,0.0,0.0,0.560045567893
1581525922643969230,,-0.022775208625,-0.0188475682666,0.811027211718,,0.0,0.0,0.560106691136
1581525922653866525,,-0.025173847702,-0.0199300820486,0.808282499541,,0.0,0.0,0.561650698751
1581525922663974399,,-0.0219321730916,-0.018366660784,0.805589957126,,0.0,0.0,0.549026064039
1581525922673811704,,-0.0231930546761,-0.0189773047861,0.802940005838,,0.0,0.0,0.547392594044
1581525922684260140,,-0.0254402831383,-0.0178334587132,0.800274789477,,0.0,0.0,0.533309764781
1581525922693935300,,-0.0215054569356,-0.0192104652009,0.797606877386,,0.0,0.0,0.559824697934
1581525922704069626,,-0.0225792218069,-0.0187573010229,0.795003183927,,0.0,0.0,0.537686444646
1581525922714323113,,-0.0246829888507,-0.018818686332,0.792391587717,,0.0,0.0,0.541726111958
1581525922723928997,,-0.0212914991271,-0.0181132933733,0.789811506922,,0.0,0.0,0.530488609181
1581525922734546675,,-0.0227601849299,-0.0183719482589,0.787228501003,,0.0,0.0,0.536399326738
1581525922744332822,,-0.0239614466969,-0.0178645963562,0.784695699558,,0.0,0.0,0.531984940718
1581525922753814670,,-0.0217297073092,-0.0195778880555,0.782142981913,,0.0,0.0,0.549006717856
1581525922763789029,,-0.0222582545809,-0.0181711721578,0.779662278604,,0.0,0.0,0.528912035824
1581525922774099690,,-0.0228832275062,-0.0180517797176,0.777162734345,,0.0,0.0,0.523428794535
1581525922784274974,,-0.0224907430646,-0.0171776234594,0.77463291825,,0.0,0.0,0.513755747466
1581525922794262257,,-0.0214595896056,-0.0198751100066,0.772128482981,,0.0,0.0,0.542604606673
1581525922804199966,,-0.0213593521252,-0.0178097254417,0.769727109371,,0.0,0.0,0.527736565087
1581525922814128163,,-0.0234407944033,-0.018344091616,0.76728079854,,0.0,0.0,0.523598839092
1581525922823886054,,-0.0205060969704,-0.0168280255641,0.764846046123,,0.0,0.0,0.512158116822
1581525922833706155,,-0.0212099274583,-0.0184517978868,0.762435362694,,0.0,0.0,0.526207735756
1581525922844061974,,-0.0228233550268,-0.0181731301774,0.760014648884,,0.0,0.0,0.512531797289
1581525922854467243,,-0.0198737771091,-0.0172584475202,0.757597297946,,0.0,0.0,0.516076448128
1581525922864155041,,-0.0212796801318,-0.0174549662929,0.755262711836,,0.0,0.0,0.506373115732
1581525922874388736,,-0.0222577407634,-0.0187674375049,0.75288639385,,0.0,0.0,0.515568031641
1581525922884290012,,-0.0199741847269,-0.0168673971519,0.750467647181,,0.0,0.0,0.506354438801
1581525922893994291,,-0.0204169971792,-0.0172502240228,0.748192441197,,0.0,0.0,0.504390045384
1581525922904044756,,-0.0234007823326,-0.0178072917462,0.745887219943,,0.0,0.0,0.50582741025
1581525922914213385,,-0.0207880464814,-0.0165419161208,0.743561030313,,0.0,0.0,0.504845437389
1581525922923907335,,-0.0179328565331,-0.0180072050197,0.741307263312,,0.0,0.0,0.502351433138
1581525922934397947,,-0.0232771837553,-0.0170256153825,0.739044444864,,0.0,0.0,0.493483388782
1581525922944353641,,-0.021553290161,-0.016205864976,0.736778354081,,0.0,0.0,0.491540521739
1581525922953602874,,-0.0176276912387,-0.0185391202474,0.734478053505,,0.0,0.0,0.51516878727
1581525922963833743,,-0.022411355807,-0.0175915369934,0.732288086632,,0.0,0.0,0.496564168068
1581525922974019847,,-0.0203698112269,-0.0168159298593,0.730084437311,,0.0,0.0,0.489189868379
1581525922983880090,,-0.0184485732028,-0.0169414458561,0.727884059876,,0.0,0.0,0.4888610608
1581525922993444128,,-0.0208685570192,-0.0186560592258,0.725647216276,,0.0,0.0,0.509476491345
1581525923003625035,,-0.0197736510747,-0.0160059787582,0.723426057692,,0.0,0.0,0.486364507601
1581525923013598105,,-0.0203606181415,-0.0174199868922,0.721302090228,,0.0,0.0,0.490505230806
1581525923024053419,,-0.019677998281,-0.0170709559497,0.719130144514,,0.0,0.0,0.482633706094
1581525923034144185,,-0.0205368026566,-0.0168124872704,0.716968787269,,0.0,0.0,0.485026294568
1581525923043904479,,-0.0202219540796,-0.0175236367935,0.714775970644,,0.0,0.0,0.487952262633
1581525923053684478,,-0.0187968267203,-0.0163345732636,0.712609413251,,0.0,0.0,0.485504867941
1581525923064265046,,-0.0197635651023,-0.0172519395653,0.710473450858,,0.0,0.0,0.477011480684
1581525923073784804,,-0.0203119395912,-0.0167530335678,0.7083547385,,0.0,0.0,0.485949178183
1581525923083822491,,-0.0188277535431,-0.0176581664795,0.706165305873,,0.0,0.0,0.481665794309
1581525923094009112,,-0.0192379410034,-0.016494754328,0.704025534464,,0.0,0.0,0.475297175045
1581525923103839977,,-0.0203975235495,-0.0159528879195,0.701976411361,,0.0,0.0,0.477198178187
1581525923114308908,,-0.0182418379818,-0.0164180792269,0.699898816344,,0.0,0.0,0.472404062755
1581525923123943390,,-0.0187210047844,-0.0168344467357,0.697773693968,,0.0,0.0,0.471069111559
1581525923133746600,,-0.019933299941,-0.0171969644163,0.69570124049,,0.0,0.0,0.486126185307
1581525923144172388,,-0.0190328442291,-0.0161503901903,0.693563115552,,0.0,0.0,0.462339438613
1581525923153773907,,-0.0183234949757,-0.0176377907552,0.691451418463,,0.0,0.0,0.484755068812
1581525923163850628,,-0.019201796803,-0.0168582580416,0.689438521173,,0.0,0.0,0.472804774926
1581525923173739211,,-0.0178113896844,-0.0166441864211,0.687385032488,,0.0,0.0,0.471787924495
1581525923183913875,,-0.018257269088,-0.0167999581122,0.6852933715,,0.0,0.0,0.469302509269
1581525923193786964,,-0.0192785230663,-0.016497305838,0.683174289443,,0.0,0.0,0.46822107208
1581525923203891541,,-0.0184336694638,-0.0168842239605,0.681110924085,,0.0,0.0,0.464569421074
1581525923214208304,,-0.0183461049299,-0.0174803162838,0.679077850734,,0.0,0.0,0.474473335229
1581525923224327419,,-0.0187504512769,-0.0158990984799,0.677031633289,,0.0,0.0,0.459269597932
1581525923233768917,,-0.0186541509061,-0.0172183756091,0.67500208483,,0.0,0.0,0.473455926927
1581525923243912214,,-0.0193995075423,-0.0169838549971,0.672936321577,,0.0,0.0,0.459805168843
1581525923253950380,,-0.0174063817047,-0.0167845527255,0.670835833086,,0.0,0.0,0.467294463282
1581525923263879611,,-0.018284532622,-0.016834537954,0.668841557841,,0.0,0.0,0.464492730326
1581525923273813603,,-0.0189577193597,-0.0172168590802,0.666786250572,,0.0,0.0,0.466614584251
1581525923283869798,,-0.018742196023,-0.016658236762,0.66478277046,,0.0,0.0,0.46106575688
1581525923294079112,,-0.0170272198518,-0.0167410527659,0.662720168728,,0.0,0.0,0.460846719121
1581525923303891838,,-0.0199669048444,-0.0175990676207,0.660683011991,,0.0,0.0,0.465098001396
1581525923313981246,,-0.0172099402656,-0.0171256060652,0.658667814577,,0.0,0.0,0.461720576796
1581525923324431108,,-0.0174688112913,-0.0160867322912,0.656661151307,,0.0,0.0,0.447510667301
1581525923333988496,,-0.0203458635627,-0.0172901000971,0.654664275658,,0.0,0.0,0.472100583778
1581525923344635793,,-0.0187435650675,-0.0171344734269,0.652639539879,,0.0,0.0,0.446487076272
1581525923354274105,,-0.0158413901999,-0.0175522681717,0.650607879913,,0.0,0.0,0.48292935127
1581525923364067472,,-0.0205296527848,-0.0164117540044,0.648602518735,,0.0,0.0,0.449657284958
1581525923374242081,,-0.0175379402777,-0.0179371308238,0.646585743311,,0.0,0.0,0.469195967086
1581525923384342773,,-0.0175077840915,-0.0166397644214,0.644598913133,,0.0,0.0,0.45771703243
1581525923393856770,,-0.0194970738935,-0.0181875899084,0.642600781548,,0.0,0.0,0.468852400146
1581525923404050409,,-0.0188152911313,-0.0175909931113,0.640647061862,,0.0,0.0,0.465858039611
1581525923414390013,,-0.016806825043,-0.0165517595743,0.638663316658,,0.0,0.0,0.458746456957
1581525923423889300,,-0.0175393590365,-0.017795083444,0.63666734275,,0.0,0.0,0.462588811936
1581525923434086612,,-0.0196328320143,-0.018153271396,0.634759009895,,0.0,0.0,0.464916369727
1581525923444134888,,-0.0186820737826,-0.017379909326,0.63279324291,,0.0,0.0,0.454689011532
1581525923453853659,,-0.0165019871109,-0.0177377143782,0.630806266577,,0.0,0.0,0.467862138379
1581525923463841545,,-0.0179384110316,-0.0182417926647,0.628894157077,,0.0,0.0,0.465844887464
1581525923474156527,,-0.0180533017162,-0.0175058624608,0.626874081027,,0.0,0.0,0.460276482286
1581525923483979286,,-0.0181908005803,-0.0179186075369,0.625042722542,,0.0,0.0,0.46386043126
1581525923493840795,,-0.017800815184,-0.0178789457659,0.623117299068,,0.0,0.0,0.461690711594
1581525923504147205,,-0.0200332884982,-0.017875387542,0.621238708601,,0.0,0.0,0.450003058918
1581525923514723481,,-0.0167162277153,-0.0165103425134,0.619297045083,,0.0,0.0,0.452875233634
1581525923523967620,,-0.0159162995692,-0.0198613212756,0.617388317499,,0.0,0.0,0.492126892679
1581525923533883047,,-0.0210933840977,-0.0186466924017,0.615510302093,,0.0,0.0,0.46704073894
1581525923543914677,,-0.0170422031115,-0.0177830494673,0.613672947192,,0.0,0.0,0.461641436788
1581525923553806033,,-0.015294907754,-0.0181421276732,0.611754205305,,0.0,0.0,0.46623945441
1581525923563849658,,-0.0201961414966,-0.0186907101814,0.609948913294,,0.0,0.0,0.469901626173
1581525923573584406,,-0.0173582712586,-0.0179500846475,0.608050256931,,0.0,0.0,0.464208194143
1581525923583390462,,-0.0165693677979,-0.0192239807447,0.606205830928,,0.0,0.0,0.471446168228
1581525923593372790,,-0.0187071232224,-0.0188668746916,0.604341932218,,0.0,0.0,0.465332943103
1581525923603484124,,-0.0184079980053,-0.0182350580269,0.602508390448,,0.0,0.0,0.462695863435
1581525923613554080,,-0.0159727307888,-0.0182167102686,0.600704717358,,0.0,0.0,0.465209204991
1581525923623496282,,-0.0178863776089,-0.0186943211628,0.598889429879,,0.0,0.0,0.465468534548
1581525923633449731,,-0.018559834189,-0.0189800177194,0.597107360565,,0.0,0.0,0.46775060369
1581525923643406500,,-0.0159680050363,-0.0187447775059,0.595251799004,,0.0,0.0,0.470240582236
1581525923653452813,,-0.0170783965942,-0.0180720069109,0.593492715373,,0.0,0.0,0.463670028551
1581525923663730956,,-0.0185759084113,-0.0192590500308,0.591753083113,,0.0,0.0,0.466141137368
1581525923673612299,,-0.0183966878396,-0.0192142013304,0.58999309825,,0.0,0.0,0.468364925597
1581525923683710601,,-0.015451604691,-0.0184750093416,0.588237761594,,0.0,0.0,0.467730126227
1581525923693778106,,-0.016931803725,-0.0193663137457,0.586461332909,,0.0,0.0,0.464854891463
1581525923704090043,,-0.0201526238708,-0.0182775772562,0.584787044664,,0.0,0.0,0.468861604233
1581525923713894419,,-0.0150287669581,-0.018792085851,0.583121598766,,0.0,0.0,0.469060717476
1581525923724086721,,-0.01547460923,-0.0182704666302,0.581457379862,,0.0,0.0,0.461577314553
1581525923734064780,,-0.0212227005957,-0.019611766462,0.579808041815,,0.0,0.0,0.479019588474
1581525923744220215,,-0.0148948401123,-0.0185944950508,0.578042794466,,0.0,0.0,0.462296030673
1581525923753765629,,-0.0170963154209,-0.0197784810312,0.576452824305,,0.0,0.0,0.483142877905
1581525923764351958,,-0.0188437951567,-0.0192732154769,0.574829427741,,0.0,0.0,0.468201775684
1581525923773951716,,-0.0163664566675,-0.0186900539104,0.573239527228,,0.0,0.0,0.477920853959
1581525923783814965,,-0.0162309692628,-0.0190022234311,0.571600437776,,0.0,0.0,0.479684267672
1581525923794281948,,-0.0333917780352,-0.0261184733928,0.570054901792,,0.0,0.0,0.467847435345
1581525923804028419,,-0.00146548334685,-0.012143246688,0.568337833148,,0.0,0.0,0.479874772763
1581525923813917892,,-0.0173619589541,-0.0187701070746,0.566848411051,,0.0,0.0,0.47287414059
1581525923823934991,,-0.0167901026278,-0.0200085154438,0.565276300557,,0.0,0.0,0.481724343451
1581525923833910091,,-0.0180841081975,-0.0185473509143,0.563770663761,,0.0,0.0,0.476776032927
1581525923844468278,,-0.0180620112866,-0.0183691059589,0.562229541996,,0.0,0.0,0.458912986426
1581525923853927694,,-0.0153176276246,-0.0209562448063,0.560634875339,,0.0,0.0,0.503273674069
1581525923863823185,,-0.0185349767815,-0.0190400988925,0.559018590907,,0.0,0.0,0.482967200216
1581525923873906378,,-0.0179220936379,-0.0191404761211,0.557450287193,,0.0,0.0,0.477023666008
1581525923884152236,,-0.0152690864669,-0.0186378177107,0.555897074545,,0.0,0.0,0.468662373253
1581525923893846463,,-0.0179412785516,-0.0205224218315,0.554354515832,,0.0,0.0,0.497378246542
1581525923903802435,,-0.0175964949671,-0.0189551387926,0.552791602807,,0.0,0.0,0.487387419848
1581525923914134321,,-0.0168149400779,-0.0198188052662,0.551220048637,,0.0,0.0,0.485928884388
1581525923923652764,,-0.0164176761067,-0.0197407104473,0.549609821586,,0.0,0.0,0.489746359917
1581525923933726921,,-0.0187097144211,-0.0195955443898,0.548127971551,,0.0,0.0,0.492008332249
1581525923943884507,,-0.0167985503844,-0.0197407283274,0.546558229143,,0.0,0.0,0.488253736837
1581525923953576854,,-0.0166610303672,-0.019496068289,0.544927634344,,0.0,0.0,0.490693555395
1581525923963688818,,-0.0192270897228,-0.0199554467677,0.543407139836,,0.0,0.0,0.490055274182
1581525923973641939,,-0.0174020065437,-0.0195633673036,0.54183441375,,0.0,0.0,0.489571643001
1581525923983820235,,-0.0173388497239,-0.0197211994119,0.540290004191,,0.0,0.0,0.49105561855
1581525923993850638,,-0.017405456957,-0.0199789748231,0.538765246699,,0.0,0.0,0.487456126467
1581525924003653467,,-0.0173731777329,-0.0193038780149,0.5372133642,,0.0,0.0,0.499849881632
1581525924013774968,,-0.0187355006638,-0.0203436750349,0.535646675637,,0.0,0.0,0.491759994916
1581525924023604991,,-0.0169887112689,-0.0204705748794,0.534095368621,,0.0,0.0,0.492470918564
1581525924033768296,,-0.0182581604674,-0.0191311043298,0.532513318286,,0.0,0.0,0.492957550511
1581525924043978472,,-0.0179395934135,-0.0205282054146,0.530939172529,,0.0,0.0,0.4921869276
1581525924054041881,,-0.017253017604,-0.0200020547645,0.529456156463,,0.0,0.0,0.496399990658
1581525924063906036,,-0.0184775324178,-0.0193994999648,0.527900212967,,0.0,0.0,0.495168375833
1581525924074157241,,-0.0186422647628,-0.0204671671566,0.526357036109,,0.0,0.0,0.493465571768
1581525924083911910,,-0.0185397007168,-0.0194379278464,0.524835404566,,0.0,0.0,0.49996439988
1581525924094042897,,-0.0186868703092,-0.0204961243229,0.523251791042,,0.0,0.0,0.498858920755
1581525924103902070,,-0.019295448806,-0.0200263318092,0.521710670487,,0.0,0.0,0.505369881192
1581525924113739514,,-0.0186150031324,-0.0197945616395,0.520103715177,,0.0,0.0,0.505401988034
1581525924123817244,,-0.0182020195686,-0.0210516740837,0.518452338512,,0.0,0.0,0.502608541703
1581525924133454704,,-0.019396800878,-0.0201529447557,0.516850052409,,0.0,0.0,0.504771328106
1581525924143476414,,-0.0174071683804,-0.0199629725815,0.515254276443,,0.0,0.0,0.505138933529
1581525924153610856,,-0.0205681834942,-0.0202016456015,0.513625810314,,0.0,0.0,0.497008983864
1581525924163420742,,-0.0187384224038,-0.0207187630721,0.511974420583,,0.0,0.0,0.515999209788
1581525924173406168,,-0.017585937933,-0.0202338929513,0.510310573117,,0.0,0.0,0.508894991422
1581525924183498698,,-0.0211317013795,-0.0207861258662,0.508625063155,,0.0,0.0,0.505276732151
1581525924193548684,,-0.0175848339024,-0.0196001488716,0.506879568809,,0.0,0.0,0.511076207308
1581525924203419061,,-0.0198281458679,-0.0206919149084,0.505302805201,,0.0,0.0,0.508954807377
1581525924213605053,,-0.0209292671465,-0.0206326331998,0.503670139637,,0.0,0.0,0.5121147369
1581525924223549494,,-0.0201797790011,-0.0206177922733,0.501961934794,,0.0,0.0,0.511914945218
1581525924233504338,,-0.0183074486905,-0.0205513220782,0.500258860674,,0.0,0.0,0.517898876452
1581525924244199179,,-0.0194151750104,-0.0198583362621,0.498541018679,,0.0,0.0,0.497462541117
1581525924253859781,,-0.0220026397363,-0.0212100592096,0.496933931687,,0.0,0.0,0.523918248573
1581525924264396412,,-0.0190877720771,-0.0206890790714,0.495271252166,,0.0,0.0,0.516712892268
1581525924273928902,,-0.0206905437218,-0.0207604058782,0.4935597713,,0.0,0.0,0.515525839362
1581525924284074122,,-0.0196911848632,-0.0205925481208,0.491861149347,,0.0,0.0,0.513974643839
1581525924293793249,,-0.0200046516544,-0.02142888652,0.490144005917,,0.0,0.0,0.524136190885
1581525924304139037,,-0.0214469019442,-0.0202499783025,0.488461443229,,0.0,0.0,0.511515766023
1581525924314299667,,-0.0195494979608,-0.0204127908274,0.486788305391,,0.0,0.0,0.51800064411
1581525924324089146,,-0.0219960747473,-0.0212082434482,0.485058579086,,0.0,0.0,0.523628214689
1581525924333847844,,-0.0202312301402,-0.0213030687828,0.483350803675,,0.0,0.0,0.528744730919
1581525924343971432,,-0.0197154435091,-0.0207288673914,0.481654367025,,0.0,0.0,0.524472626239
1581525924353950901,,-0.0227587680203,-0.0212781570834,0.479951482282,,0.0,0.0,0.524158639127
1581525924364247041,,-0.0205273474995,-0.0205210374892,0.478233801443,,0.0,0.0,0.525338557167
1581525924374030762,,-0.0194519241363,-0.0206970437835,0.476508415572,,0.0,0.0,0.522394232069
1581525924383949993,,-0.0204784387525,-0.0209920021821,0.474720085272,,0.0,0.0,0.526553547273
1581525924393821557,,-0.0227840181465,-0.0212944645566,0.473027286231,,0.0,0.0,0.528842779863
1581525924403813937,,-0.021287329831,-0.0205307882632,0.471295797723,,0.0,0.0,0.52857313864
1581525924414195859,,-0.0211497593171,-0.0207040988383,0.469530206452,,0.0,0.0,0.5279831249
1581525924423869980,,-0.0217405567656,-0.0206849266841,0.467796409189,,0.0,0.0,0.522108492222
1581525924433912417,,-0.0199019811557,-0.0212064104816,0.466052064365,,0.0,0.0,0.543123569752
1581525924444090758,,-0.0204225076151,-0.0204400848485,0.464157513054,,0.0,0.0,0.529592924763
1581525924454004645,,-0.0234026237535,-0.0217221673567,0.462391016621,,0.0,0.0,0.539612639506
1581525924463859961,,-0.0212422759275,-0.020712992579,0.460558968218,,0.0,0.0,0.530849334152
1581525924473977847,,-0.0211441342531,-0.0204867376088,0.458675653331,,0.0,0.0,0.533415522479
1581525924483900029,,-0.0195878805292,-0.0207880196752,0.456863820924,,0.0,0.0,0.530343328225
1581525924493806184,,-0.0233832092768,-0.0208264708491,0.455039873601,,0.0,0.0,0.542956964335
1581525924503981272,,-0.0210240843581,-0.0204957276766,0.453084765564,,0.0,0.0,0.5351224621
1581525924513986987,,-0.0191019848189,-0.0198659196818,0.451202578221,,0.0,0.0,0.535001252123
1581525924523845800,,-0.0229588539933,-0.0211959237574,0.449332225783,,0.0,0.0,0.543716611272
1581525924533810023,,-0.0231431169148,-0.020726227883,0.447409543242,,0.0,0.0,0.535379721486
1581525924543800308,,-0.0196570990843,-0.0192729685768,0.445484840159,,0.0,0.0,0.533412845126
1581525924553662071,,-0.0216951302887,-0.0211373333448,0.443605208665,,0.0,0.0,0.552193776809
1581525924563879365,,-0.022232269216,-0.0199938333311,0.441699061801,,0.0,0.0,0.541909374696
1581525924573771926,,-0.0203486321076,-0.0196682864859,0.439715104757,,0.0,0.0,0.543537434938
1581525924583691137,,-0.02108619362,-0.0203930838229,0.437779854223,,0.0,0.0,0.545392518005
1581525924593850410,,-0.0227173583559,-0.0200522748537,0.435831099382,,0.0,0.0,0.541610237589
1581525924603829669,,-0.0216097370037,-0.0191807885521,0.433879124133,,0.0,0.0,0.544013848508
1581525924613826100,,-0.0199741497765,-0.0195074619366,0.43186963019,,0.0,0.0,0.557633385617
1581525924623679213,,-0.0215113541393,-0.019871910375,0.429881581276,,0.0,0.0,0.551578720999
1581525924633726054,,-0.0218156260807,-0.0190826809556,0.427886047477,,0.0,0.0,0.553738679353
1581525924643693776,,-0.0211923876492,-0.0190398144352,0.425811306452,,0.0,0.0,0.554139341021
1581525924653644840,,-0.01972579383,-0.0198528441025,0.423823428194,,0.0,0.0,0.554628370747
1581525924663914743,,-0.0218264158048,-0.0187841992369,0.421788883686,,0.0,0.0,0.550168457275
1581525924673695307,,-0.0224795936655,-0.0192270604144,0.419766370526,,0.0,0.0,0.55445260317
1581525924683722362,,-0.01687659697,-0.0178262004847,0.417668002494,,0.0,0.0,0.558151888262
1581525924693576158,,-0.0220297327562,-0.0197549005349,0.415684488978,,0.0,0.0,0.565789059353
1581525924703748521,,-0.0223595590204,-0.0191828163347,0.41370062454,,0.0,0.0,0.558306305301
1581525924714118959,,-0.0198989312137,-0.0176665649111,0.411631123982,,0.0,0.0,0.559638055748
1581525924724049063,,-0.0206860739642,-0.0188174059621,0.409532288445,,0.0,0.0,0.560043166721
1581525924734023787,,-0.0208430795523,-0.0181893307283,0.407439758313,,0.0,0.0,0.564826223673
1581525924743990480,,-0.0215233911542,-0.0175016459345,0.405436932837,,0.0,0.0,0.56373414613
1581525924754438397,,-0.0195816143219,-0.0183281483792,0.403435412328,,0.0,0.0,0.570958219769
1581525924764636441,,-0.0203021109527,-0.0173464475081,0.401373515553,,0.0,0.0,0.556000757597
1581525924773892341,,-0.0208600109554,-0.018607322633,0.399284461645,,0.0,0.0,0.595488404415
1581525924783881936,,-0.0199504948277,-0.016165824526,0.397165186735,,0.0,0.0,0.571211034272
1581525924794532788,,-0.0196937824701,-0.0184455842166,0.395122870156,,0.0,0.0,0.568200399203
1581525924803919669,,-0.0203708198435,-0.0173397240221,0.393103908305,,0.0,0.0,0.577735307594
1581525924814401668,,-0.0218497326197,-0.016953594446,0.391093269311,,0.0,0.0,0.587407133776
1581525924824360122,,-0.0176867503048,-0.0172471211905,0.389077114857,,0.0,0.0,0.583583697619
1581525924833797651,,-0.0200286333363,-0.017404735189,0.387030027572,,0.0,0.0,0.591759116458
1581525924843832730,,-0.0206694736405,-0.0169535173989,0.384962215457,,0.0,0.0,0.592140825946
1581525924853656782,,-0.0191432970943,-0.0163487704332,0.382963579057,,0.0,0.0,0.585886289613
1581525924863900388,,-0.019282078941,-0.0161569243523,0.3809793914,,0.0,0.0,0.57611343192
1581525924873495106,,-0.0206777580045,-0.0163859319763,0.378989891315,,0.0,0.0,0.607952413894
1581525924883563635,,-0.0196462161062,-0.0165574711302,0.377022807121,,0.0,0.0,0.597928891624
1581525924893533397,,-0.0187893297289,-0.0164686772621,0.375024534417,,0.0,0.0,0.596396047331
1581525924903648695,,-0.0188421840094,-0.0161153594221,0.372955698313,,0.0,0.0,0.601491868265
1581525924913791347,,-0.019895250539,-0.0150603700961,0.370940168125,,0.0,0.0,0.59321170983
1581525924923839737,,-0.0191868389906,-0.0162050157809,0.369026328376,,0.0,0.0,0.607744476791
1581525924933906657,,-0.0181787541578,-0.0154137895609,0.367032090877,,0.0,0.0,0.597074637719
1581525924944058374,,-0.0196194953187,-0.0156595579441,0.365028415771,,0.0,0.0,0.606718538202
1581525924953763681,,-0.0184416482191,-0.0145626323708,0.363078471391,,0.0,0.0,0.612102000177
1581525924964344644,,-0.0176702210956,-0.0146375089044,0.361098023839,,0.0,0.0,0.601788610564
1581525924973881306,,-0.0192663021572,-0.01631345037,0.359101002637,,0.0,0.0,0.625759043027
1581525924984150113,,-0.0174605516562,-0.0144311349501,0.3570727805,,0.0,0.0,0.617154089544
1581525924993893246,,-0.0165478707713,-0.0146129160786,0.355074803626,,0.0,0.0,0.614343226821
1581525925004021566,,-0.0188321471322,-0.0144451391906,0.353076624332,,0.0,0.0,0.608449996756
1581525925014465184,,-0.0184537681703,-0.0145929139127,0.351082859837,,0.0,0.0,0.62607890763
1581525925024273597,,-0.017887693932,-0.0140855438098,0.349115567604,,0.0,0.0,0.619912758469
1581525925033845108,,-0.0175286093975,-0.0137924657532,0.347062117198,,0.0,0.0,0.629037010473
1581525925043550857,,-0.0164816342945,-0.01419500691,0.344998402199,,0.0,0.0,0.634945542995
1581525925053560924,,-0.018513026176,-0.013763926689,0.343021544526,,0.0,0.0,0.629507759473
1581525925063629461,,-0.0170061934725,-0.0134096778554,0.341018828082,,0.0,0.0,0.628661796319
1581525925073894662,,-0.0176420916356,-0.0139361364094,0.339025793918,,0.0,0.0,0.629515366956
1581525925084027504,,-0.0166730857511,-0.0133028553301,0.336897094364,,0.0,0.0,0.631515556185
1581525925093772228,,-0.0173726678207,-0.0137677448715,0.334903452849,,0.0,0.0,0.643156154614
1581525925103893819,,-0.018433752755,-0.0129491536125,0.332824363579,,0.0,0.0,0.638391970143
1581525925114243841,,-0.0164830530389,-0.0129578427135,0.330848869432,,0.0,0.0,0.642054418286
1581525925124488413,,-0.0298156278267,-0.0253655788184,0.329001081206,,0.0,0.0,0.633965544074
1581525925133911263,,-0.00247023103636,-0.000795435156775,0.326746670018,,0.0,0.0,0.658497992187
1581525925143862837,,-0.0156758583865,-0.0116621001236,0.324520875224,,0.0,0.0,0.654236291082
1581525925153732879,,-0.0177143651591,-0.0139422045368,0.322492078648,,0.0,0.0,0.652923804899
1581525925164326966,,-0.0167499315122,-0.0121237309102,0.320377936565,,0.0,0.0,0.64009800261
1581525925173738076,,-0.0166926914224,-0.0122653741098,0.318322164864,,0.0,0.0,0.671243527509
1581525925184129156,,-0.0162511405531,-0.0125666467683,0.316245627571,,0.0,0.0,0.654400778292
1581525925193950751,,-0.0164016074174,-0.0115027365206,0.314140824733,,0.0,0.0,0.66139565328
1581525925204292254,,-0.0155505402131,-0.0113359964746,0.312056535387,,0.0,0.0,0.662828637247
1581525925214113858,,-0.0180458937936,-0.0125077300778,0.309872522065,,0.0,0.0,0.665940948166
1581525925223814779,,-0.0154411929645,-0.011832957264,0.307711007751,,0.0,0.0,0.672971774775
1581525925233848568,,-0.0150185601541,-0.0117251273053,0.30563713616,,0.0,0.0,0.66454675163
1581525925243980473,,-0.0179260925448,-0.0118788607451,0.303533223103,,0.0,0.0,0.670535046472
1581525925254386709,,-0.0157530764445,-0.0109497160384,0.301389734635,,0.0,0.0,0.667268320303
1581525925264022138,,-0.0161973518808,-0.0112578746372,0.299296641831,,0.0,0.0,0.678478858606
1581525925273796849,,-0.0148247219885,-0.0118182917973,0.297182520232,,0.0,0.0,0.686495076092
1581525925283961024,,-0.0161438205391,-0.0106796172844,0.29498434989,,0.0,0.0,0.680843256525
1581525925294352749,,-0.0175855810778,-0.0126178834236,0.292860067877,,0.0,0.0,0.68256426852
1581525925304127363,,-0.0146487560213,-0.0104546138788,0.290737786492,,0.0,0.0,0.67815673981
1581525925314265937,,-0.0151816041631,-0.0104523540475,0.288650587043,,0.0,0.0,0.694144426687
1581525925324058087,,-0.0163608842393,-0.0113366231433,0.286509875395,,0.0,0.0,0.690874263839
1581525925333914501,,-0.0160648998365,-0.0112855389844,0.284402258458,,0.0,0.0,0.694263058384
1581525925344043895,,-0.0127915121821,-0.0104039121532,0.282110252025,,0.0,0.0,0.69171890583
1581525925354266548,,-0.0188979875923,-0.0118406405252,0.280083642747,,0.0,0.0,0.705850048972
1581525925363883408,,-0.016601112308,-0.0114447051476,0.277960312163,,0.0,0.0,0.703164523016
1581525925373622099,,-0.0144736090345,-0.00990199166112,0.275841913992,,0.0,0.0,0.704790595232
1581525925383704863,,-0.0159282059262,-0.0109847201688,0.273683572313,,0.0,0.0,0.705270987167
1581525925393659819,,-0.0154686334136,-0.0107545296045,0.271589492598,,0.0,0.0,0.705560229946
1581525925403541439,,-0.0169008149481,-0.0110151286,0.26939529214,,0.0,0.0,0.713744913695
1581525925413905792,,-0.00150782744674,0.00349995758568,0.266991730799,,0.0,0.0,0.695771141797
1581525925423956096,,-0.0280332698745,-0.0246819422842,0.265073751551,,0.0,0.0,0.734215049818
1581525925433547416,,-0.0176692243063,-0.0110240239486,0.262964811672,,0.0,0.0,0.714197497249
1581525925443828262,,-0.0138788728824,-0.00969636366554,0.260768354794,,0.0,0.0,0.714567434476
1581525925453716694,,-0.0157066734007,-0.0100593749641,0.258606255138,,0.0,0.0,0.734195539297
1581525925463550073,,-0.0159007079064,-0.0112663265835,0.256436235782,,0.0,0.0,0.723253586038
1581525925474065034,,-0.0161340871845,-0.00977760255968,0.254296290996,,0.0,0.0,0.708897769461
1581525925483944458,,-0.0130277814987,-0.0106369506566,0.252089947473,,0.0,0.0,0.744359637869
1581525925493780399,,-0.0150343670456,-0.0105961859682,0.249892753943,,0.0,0.0,0.729837889549
1581525925503791943,,-0.0164723102487,-0.0102049061729,0.247718069141,,0.0,0.0,0.734738508198
1581525925514065653,,-0.0138677562877,-0.00960967433537,0.245486130422,,0.0,0.0,0.726654125542
1581525925524010072,,-0.0142604158599,-0.0100347162832,0.24331893919,,0.0,0.0,0.718485205649
1581525925533684039,,-0.0154393467449,-0.0105086033374,0.241176145508,,0.0,0.0,0.758434603062
1581525925543915296,,-0.0162911211142,-0.00957324910055,0.239019024838,,0.0,0.0,0.739167680061
1581525925553789119,,-0.0115581559595,-0.00984645452346,0.236862036908,,0.0,0.0,0.741412768615
1581525925564206860,,-0.0139182656798,-0.00923240900299,0.234565251654,,0.0,0.0,0.732467763142
1581525925573786713,,-0.0164880750344,-0.0105326826104,0.232447916901,,0.0,0.0,0.752484562522
1581525925583941842,,-0.0144276067389,-0.00894168816884,0.230234665388,,0.0,0.0,0.736096132142
1581525925593661915,,-0.0131973287346,-0.0091820826825,0.228077998147,,0.0,0.0,0.75787213244
1581525925604164876,,-0.0136572518901,-0.01056441919,0.225969044982,,0.0,0.0,0.734567399389
1581525925614365658,,-0.0159712362566,-0.00995879405299,0.223830627247,,0.0,0.0,0.749319043474
1581525925623712970,,-0.011590405297,-0.00922177326512,0.221668186224,,0.0,0.0,0.762715843361
1581525925633846178,,-0.0134481310878,-0.00941543942481,0.219493978915,,0.0,0.0,0.747044530281
1581525925643798925,,-0.0142420395771,-0.0094316306405,0.217398040308,,0.0,0.0,0.758195549476
1581525925653644216,,-0.013681432352,-0.0098311002482,0.215249502289,,0.0,0.0,0.757609110019
1581525925663785600,,-0.0125016618958,-0.0090423780333,0.21313583031,,0.0,0.0,0.746591450852
1581525925673933007,,-0.0127747489081,-0.00956098930334,0.21096338736,,0.0,0.0,0.747580854705
1581525925683807537,,-0.0140179413921,-0.00929355375154,0.208825215818,,0.0,0.0,0.767566501269
1581525925693946548,,-0.0126032398351,-0.00847015999679,0.206670794402,,0.0,0.0,0.752739448181
1581525925704184264,,-0.0123600770821,-0.0103284115293,0.204633695896,,0.0,0.0,0.756500679261
1581525925714340058,,-0.0113002384998,-0.00784526331489,0.202401312497,,0.0,0.0,0.750834014729
1581525925723985776,,-0.0146440791861,-0.0100906049284,0.200304225547,,0.0,0.0,0.770950391418
1581525925733882915,,-0.0105665211645,-0.00884271696641,0.198202035682,,0.0,0.0,0.757177416498
1581525925744116908,,-0.0132700798839,-0.0103691072031,0.196146148141,,0.0,0.0,0.748847654214
1581525925753824097,,-0.0111911387951,-0.00883880879955,0.193971376648,,0.0,0.0,0.780594673364
1581525925764054851,,-0.0116147619704,-0.00921311314519,0.191899919006,,0.0,0.0,0.765268448133
1581525925773784546,,-0.011189394077,-0.00977470430491,0.18977239682,,0.0,0.0,0.769011295943
1581525925783919921,,-0.0113480503603,-0.00911597316366,0.187735241774,,0.0,0.0,0.767418439339
1581525925793776375,,-0.0129378767487,-0.009465003483,0.185705903528,,0.0,0.0,0.764212571714
1581525925803854221,,-0.00900746857686,-0.00821484252743,0.183613419389,,0.0,0.0,0.771389045847
1581525925814097324,,-0.0104993842986,-0.0098245949509,0.181588642695,,0.0,0.0,0.770127574074
1581525925823787762,,-0.0121667433959,-0.00976669703177,0.179469478915,,0.0,0.0,0.770988512665
1581525925833729414,,-0.0109884645976,-0.00927364735193,0.177451344091,,0.0,0.0,0.773603953202
1581525925844100635,,-0.00801921627498,-0.00851745138631,0.175352374688,,0.0,0.0,0.746435601993
1581525925853763521,,-0.00994594619711,-0.0094770347346,0.173383726988,,0.0,0.0,0.801868285256
1581525925863946990,,-0.011634099007,-0.0104778429014,0.171356170179,,0.0,0.0,0.779518622922
1581525925873957183,,-0.0100463101174,-0.00917681802951,0.169293713503,,0.0,0.0,0.774527623242
1581525925883888029,,-0.00778460058083,-0.00931414206546,0.167240926397,,0.0,0.0,0.77774123078
1581525925894254100,,-0.0107260785024,-0.00973804213964,0.165274742429,,0.0,0.0,0.777521914323
1581525925903915095,,-0.0100767868197,-0.00911067039763,0.163298678136,,0.0,0.0,0.790487593344
1581525925914229606,,-0.0077560389164,-0.00976169535791,0.161312654022,,0.0,0.0,0.780377442342
1581525925923914003,,-0.00965719973838,-0.0113354301653,0.159381607601,,0.0,0.0,0.791930238968
1581525925933778246,,-0.00874328792716,-0.00837763599138,0.157288028267,,0.0,0.0,0.789686187938
1581525925944278527,,-0.00687636957494,-0.00965804775296,0.155328242486,,0.0,0.0,0.787236565124
1581525925953827577,,-0.00718282733012,-0.00934975174632,0.153294418387,,0.0,0.0,0.785159439499
1581525925963933249,,-0.0100744672154,-0.0109958541174,0.151394633091,,0.0,0.0,0.796853224435
1581525925973810890,,-0.00861942381902,-0.0101635599185,0.149486624567,,0.0,0.0,0.786416004703
1581525925983869339,,-0.00587938248246,-0.00913930700124,0.147439362655,,0.0,0.0,0.796096468844
1581525925994611408,,-0.00759730581065,-0.0101652315617,0.145566093246,,0.0,0.0,0.767049684454
1581525926003998672,,-0.00923241684238,-0.0110493664918,0.14370928261,,0.0,0.0,0.811689177773
1581525926014595744,,-0.00609382306732,-0.0102429677595,0.141817388085,,0.0,0.0,0.802192739511
1581525926024318972,,-0.00552384490824,-0.0105767054335,0.139835959193,,0.0,0.0,0.791329224361
1581525926033490164,,-0.00529616634431,-0.0104130281039,0.137845068871,,0.0,0.0,0.818441324346
1581525926043508751,,-0.00771243233726,-0.010828606055,0.136054887168,,0.0,0.0,0.800983832633
1581525926053309866,,-0.00651751375465,-0.0105023068068,0.134201997463,,0.0,0.0,0.803338705912
1581525926063373211,,-0.00535862000765,-0.0109844456606,0.132344702648,,0.0,0.0,0.794876010502
1581525926073439451,,-0.00639439747854,-0.0106482842337,0.130446546901,,0.0,0.0,0.804199937236
1581525926083200694,,-0.00490505590106,-0.0112549053283,0.128549636372,,0.0,0.0,0.814456233567
1581525926093599581,,-0.00422089320255,-0.0107722017148,0.126715505492,,0.0,0.0,0.788589140506
1581525926103539002,,-0.00452693966295,-0.010946613545,0.124888595378,,0.0,0.0,0.807830470284
1581525926113704697,,-0.00634116535513,-0.0113101663259,0.123106966407,,0.0,0.0,0.805582419094
1581525926123874746,,-0.00416346891385,-0.0110854828808,0.121278260381,,0.0,0.0,0.802188820256
1581525926134524242,,-0.00524623071176,-0.0115574693596,0.119463019495,,0.0,0.0,0.751873052129
1581525926143914813,,-0.00377341752285,-0.0115883812026,0.117578463893,,0.0,0.0,0.873449303733
1581525926153917588,,-0.00490991080783,-0.0118258269827,0.115715039189,,0.0,0.0,0.803130433837
1581525926163958382,,-0.00217806650898,-0.0105405586229,0.113854260457,,0.0,0.0,0.807753357191
1581525926173916477,,-0.00291970023866,-0.0123085754674,0.112144081684,,0.0,0.0,0.808314664388
1581525926183963700,,-0.00543251285615,-0.0124671320201,0.110378799672,,0.0,0.0,0.812419385443
1581525926193983206,,-0.00393997510959,-0.0107030676344,0.108581162789,,0.0,0.0,0.807463213996
1581525926203812643,,-0.00151580972786,-0.0123721151236,0.106741855556,,0.0,0.0,0.824492874968
1581525926214190347,,-0.00365842842706,-0.0132025558562,0.104881601472,,0.0,0.0,0.81198496012
1581525926223971471,,-0.0028399210608,-0.0117103118418,0.103074240566,,0.0,0.0,0.8102635674
1581525926233909524,,-0.00227432689398,-0.0124308002013,0.101332679997,,0.0,0.0,0.80995517733
1581525926244004914,,-0.00265327688705,-0.0134272003881,0.09963220774,,0.0,0.0,0.800012755913
1581525926254029099,,-0.0030030783898,-0.0132390590197,0.0978538886915,,0.0,0.0,0.8280072083
1581525926264050243,,-0.00337319162423,-0.0125497168022,0.0961136476399,,0.0,0.0,0.809539005657
1581525926274023346,,-0.000115052729065,-0.0126933979357,0.0943313391212,,0.0,0.0,0.82222366835
1581525926284354884,,-0.00086778328092,-0.0118877522565,0.0924271357155,,0.0,0.0,0.804930859801
1581525926293910462,,-0.00216921761983,-0.013624696034,0.0907448368842,,0.0,0.0,0.835113497115
1581525926303850296,,-0.00164723654872,-0.0134001626825,0.0890712084367,,0.0,0.0,0.81677281313
1581525926314332869,,-0.000732597142168,-0.0133824485589,0.0873469842739,,0.0,0.0,0.82181825655
1581525926323854793,,-0.00106823618258,-0.0131195579723,0.0856190260253,,0.0,0.0,0.822063808466
1581525926333750988,,-0.00178443496106,-0.0131678642301,0.0839118091195,,0.0,0.0,0.823176039823
1581525926344154879,,-4.18798000929e-05,-0.0137491937219,0.0821971542496,,0.0,0.0,0.818189319844
1581525926353934691,,0.0017118421289,-0.0125493039708,0.0804494764711,,0.0,0.0,0.824589992638
1581525926364290368,,-0.00294963644264,-0.014913248738,0.0788282889467,,0.0,0.0,0.813060409269
1581525926374056549,,0.000306011087102,-0.0137681435217,0.0771163944633,,0.0,0.0,0.826780404389
1581525926383991391,,0.00196733365564,-0.0143524058843,0.0753974593067,,0.0,0.0,0.832156624174
1581525926394111930,,-5.03648051684e-05,-0.0137042912037,0.0736529398626,,0.0,0.0,0.825861304627
1581525926404251344,,-2.23360116578e-05,-0.0144067331983,0.0720560278696,,0.0,0.0,0.825037085032
1581525926414101156,,0.00169344040229,-0.0142006843213,0.0704106413807,,0.0,0.0,0.827762829319
1581525926423865295,,0.00187802343211,-0.0134523065439,0.0687225265667,,0.0,0.0,0.830293435421
1581525926433753306,,0.000181622208033,-0.015224749343,0.067116175413,,0.0,0.0,0.831284125353
1581525926444214370,,-0.000585044535148,-0.0140653558352,0.0654225748583,,0.0,0.0,0.82260672039
1581525926453739328,,0.00346052006614,-0.0148862368898,0.0637753955495,,0.0,0.0,0.829099051462
1581525926463849753,,0.00106157446233,-0.0148877283487,0.0621607090434,,0.0,0.0,0.82769429507
1581525926474014799,,0.000309046090611,-0.01412518265,0.0606059024987,,0.0,0.0,0.829357921655
1581525926484562577,,0.00189202664841,-0.0143330765584,0.0589984076043,,0.0,0.0,0.805796954771
1581525926493930182,,0.00362792945187,-0.0145392602787,0.0573572136207,,0.0,0.0,0.855596598546
1581525926503813942,,0.001226117926,-0.0160087321675,0.0557347051989,,0.0,0.0,0.845679133008
1581525926513818166,,0.000738983112659,-0.0151798130698,0.0541206674585,,0.0,0.0,0.831440419988
1581525926523975670,,0.00329601604926,-0.0149508136593,0.0526278986994,,0.0,0.0,0.834431895528
1581525926533845481,,0.0021681568903,-0.0152699395285,0.0510192261172,,0.0,0.0,0.808038204715
1581525926543790018,,0.00100083537903,-0.0151249422293,0.0495377191891,,0.0,0.0,0.84059062833
1581525926553524043,,0.00290768837229,-0.0157640998389,0.0480350775872,,0.0,0.0,0.855874638649
1581525926563559459,,0.00372879752232,-0.0154297775018,0.0465269496732,,0.0,0.0,0.833543644437
1581525926573627928,,0.00225768519518,-0.0158410524548,0.0449828644303,,0.0,0.0,0.831541317471
1581525926583552737,,0.00178405413088,-0.0160257456239,0.0435087322412,,0.0,0.0,0.839643675376
1581525926593684580,,0.00404399123866,-0.0153784502056,0.0419993485842,,0.0,0.0,0.825162062358
1581525926603644464,,0.00378521637052,-0.0156808922715,0.040472643909,,0.0,0.0,0.835595284035
1581525926614192490,,0.000801445553253,-0.0159933932989,0.039150712814,,0.0,0.0,0.826348907393
1581525926623753192,,0.002279273841,-0.0154312317689,0.0377069783833,,0.0,0.0,0.842252004209
1581525926633756514,,0.00540404974116,-0.0163369252771,0.0362530033531,,0.0,0.0,0.834485799907
1581525926643835980,,0.00192152125034,-0.0163756858782,0.0348016190518,,0.0,0.0,0.835737297827
1581525926653708713,,0.00278112068107,-0.0169447070033,0.0334056014853,,0.0,0.0,0.840534744117
1581525926664293142,,0.00349836077118,-0.0154877023051,0.0319971855654,,0.0,0.0,0.796724098275
1581525926673720536,,0.00366080952107,-0.0168897856928,0.030598717822,,0.0,0.0,0.881220683207
1581525926684012675,,0.00243729157253,-0.016671191196,0.0292169515751,,0.0,0.0,0.811176163619
1581525926694179834,,0.00257391102307,-0.0154877781821,0.0278379178068,,0.0,0.0,0.845403580574
1581525926703924707,,0.00512511017752,-0.0167098200983,0.0265225575451,,0.0,0.0,0.853661864657
1581525926714331718,,0.00350761472944,-0.0168680850375,0.0252054270501,,0.0,0.0,0.845402524032
1581525926724010526,,-0.01531436724,-0.0297852129075,0.0239201288062,,0.0,0.0,0.843521698648
1581525926733920787,,0.0212592382511,-0.00329268229225,0.0225552067475,,0.0,0.0,0.837066067468
1581525926744387803,,0.00424321312512,-0.0170040633699,0.0212379494409,,0.0,0.0,0.829993118069
1581525926753855379,,0.00421163196459,-0.0156611964654,0.0198317198129,,0.0,0.0,0.860450374435
1581525926764302119,,0.00127131974776,-0.0177390758104,0.0186216820393,,0.0,0.0,0.831677649041
1581525926773872682,,0.00531762017999,-0.016467392413,0.0173048754825,,0.0,0.0,0.853364178815
1581525926783802326,,0.00428312793819,-0.0162600769921,0.0161272192666,,0.0,0.0,0.849119864164
1581525926794282826,,0.000839353897314,-0.0188407399461,0.0151564378582,,0.0,0.0,0.843670250291
1581525926803876487,,0.00477904674317,-0.01651085995,0.0140574723381,,0.0,0.0,0.848544312491
1581525926814427947,,0.00599369158274,-0.0166378644603,0.0129927462899,,0.0,0.0,0.840624970143
1581525926824026553,,0.000771987328657,-0.0186968808419,0.012087024969,,0.0,0.0,0.840204425159
1581525926833673247,,0.00484205267441,-0.0164125264158,0.0110473618854,,0.0,0.0,0.865929788024
1581525926844024136,,0.00411483687655,-0.0177227283079,0.0102076286365,,0.0,0.0,0.836265481612
1581525926853879270,,0.0033922077848,-0.0180764406204,0.00928023621912,,0.0,0.0,0.847650337227
1581525926864012469,,0.00412447935818,-0.0162484693174,0.00828102403677,,0.0,0.0,0.834881285284
1581525926873922471,,0.00307918399458,-0.0177449953863,0.00738178763208,,0.0,0.0,0.837476938068
1581525926884381984,,0.0201078339987,-0.00472556397673,0.00654324023951,,0.0,0.0,0.811555003591
1581525926894143117,,-0.0129807173423,-0.0315805779733,0.00541772416931,,0.0,0.0,0.874602706945
1581525926903972406,,0.00134988578842,-0.0190171763567,0.00456861929637,,0.0,0.0,0.850902471514
1581525926914234501,,0.0065590953444,-0.017410217599,0.003580734754,,0.0,0.0,0.840543204524
1581525926923935560,,0.00297331081312,-0.0181998333969,0.00257870439654,,0.0,0.0,0.838389484087
1581525926933837914,,0.00434379778171,-0.0168534676815,0.00150792895583,,0.0,0.0,0.85065649974
1581525926944166055,,0.00296636189361,-0.0182272736901,0.000475785170748,,0.0,0.0,0.823350429899
1581525926953789316,,0.00576366014028,-0.0174579557759,-0.000587025708269,,0.0,0.0,0.865020779558
1581525926964255809,,0.00568218213332,-0.0165356232286,-0.00175415522925,,0.0,0.0,0.828641335949
1581525926974003318,,0.00201863782601,-0.0183947817071,-0.00282167190389,,0.0,0.0,0.849663873722
1581525926983908264,,0.00488977414396,-0.0183429101402,-0.0039921805912,,0.0,0.0,0.852462176006
1581525926994115353,,0.00529221287566,-0.0174395284629,-0.00521622834138,,0.0,0.0,0.824888196285
1581525927004164955,,0.00219421687954,-0.0191236121817,-0.0063987347255,,0.0,0.0,0.852353535923
1581525927014283452,,0.00342929089953,-0.0173401686187,-0.00760712846087,,0.0,0.0,0.851684647094
1581525927023867270,,0.0071355050909,-0.0175600706573,-0.00885831138441,,0.0,0.0,0.841509139045
1581525927033637613,,0.00363702321409,-0.0178668571258,-0.0101798357251,,0.0,0.0,0.852874801968
1581525927043862513,,0.00266945476808,-0.0185072553535,-0.0114318273617,,0.0,0.0,0.828118954625
1581525927053576391,,0.00378902191742,-0.0175568472488,-0.0127944208093,,0.0,0.0,0.852805053653
1581525927063831031,,0.00491604445749,-0.0175203995966,-0.0140938679236,,0.0,0.0,0.844230145385
1581525927073613392,,0.00514469471522,-0.0180784875946,-0.0154596125035,,0.0,0.0,0.843606365566
1581525927083598499,,0.00177512144748,-0.0180787775067,-0.0167910326731,,0.0,0.0,0.845969477344
1581525927094146289,,0.00526917382355,-0.0176677557116,-0.0182068379985,,0.0,0.0,0.833179609211
1581525927104066816,,0.00407339817152,-0.018447199486,-0.0196113480664,,0.0,0.0,0.829700805375
1581525927114785493,,0.00397150239905,-0.0176639556254,-0.0210529889946,,0.0,0.0,0.854871547998
1581525927124517205,,-0.0120114924833,-0.0303556786891,-0.0225093834614,,0.0,0.0,0.833470474859
1581525927134094965,,0.0211721521495,-0.00411107051915,-0.0240343257787,,0.0,0.0,0.844560285305
1581525927143988250,,0.00433753833221,-0.0189501531383,-0.0254338934133,,0.0,0.0,0.846650770033
1581525927153970958,,0.00322188735754,-0.0179221806757,-0.0268618020109,,0.0,0.0,0.853259671132
1581525927164114546,,0.00364740053409,-0.0184616433337,-0.0283442832495,,0.0,0.0,0.83495509018
1581525927174227787,,0.0410319709662,0.0313864771716,-0.0285111585811,,0.0,0.0,0.851884911801
1581525927184107303,,0.0716465005934,0.0778337258695,-0.0273715608223,,0.0,0.0,0.820529136624
1581525927194455848,,0.0746819342997,0.081691974793,-0.026208915851,,0.0,0.0,0.846642670018
1581525927203943604,,0.0803575073034,0.0868050256931,-0.0251517611627,,0.0,0.0,0.866304031149
1581525927214176031,,0.0752675424843,0.0814590342984,-0.0240256284358,,0.0,0.0,0.829809291153
1581525927224039125,,0.0761665432056,0.0832682172124,-0.0228409706622,,0.0,0.0,0.849353959885
1581525927233943914,,0.0755642894003,0.0829424418774,-0.0216718004767,,0.0,0.0,0.842521347181
1581525927244078528,,0.0763662932228,0.0823981008304,-0.0205437411473,,0.0,0.0,0.838660991669
1581525927254334139,,0.0753620017747,0.0814077851067,-0.0194230576886,,0.0,0.0,0.826352896169
1581525927263985740,,0.0770088884791,0.085378297822,-0.0183611080766,,0.0,0.0,0.853470314487
1581525927273901867,,0.0768569852024,0.0853010655311,-0.0171605639915,,0.0,0.0,0.844706170283
1581525927284009443,,0.0782627319493,0.0827283052637,-0.0160581616522,,0.0,0.0,0.820670795848
1581525927294182809,,0.078206978526,0.0859433130225,-0.0149299190202,,0.0,0.0,0.855752734085
1581525927303768645,,0.0773357899954,0.0863235725781,-0.0137914854578,,0.0,0.0,0.838847212048
1581525927314266571,,0.0762249100243,0.0834941447541,-0.0126187801936,,0.0,0.0,0.822111574365
1581525927324525221,,0.0767932903688,0.0835677686291,-0.0114550007732,,0.0,0.0,0.832719392835
1581525927334360939,,0.0798446004726,0.0873535714312,-0.0102987202049,,0.0,0.0,0.85951997613
1581525927344092092,,0.0764081176627,0.0855578126633,-0.0091510848937,,0.0,0.0,0.83024723039
1581525927353921762,,0.0814337319748,0.086863911093,-0.0079755893106,,0.0,0.0,0.850937326438
1581525927363863473,,0.0757808445975,0.0842152602126,-0.00677930428195,,0.0,0.0,0.832938503934
1581525927374123324,,0.075967318425,0.0867921077093,-0.00557580931096,,0.0,0.0,0.837788777504
1581525927384225174,,0.0789783669306,0.0857417144159,-0.0043685098533,,0.0,0.0,0.84106488197
1581525927394140056,,0.0787828972504,0.0875061491318,-0.00329168534055,,0.0,0.0,0.836666790688
1581525927403818766,,0.0760014102491,0.0845339641984,-0.00194860830738,,0.0,0.0,0.836270521947
1581525927413762333,,0.0771643863791,0.0873796436545,-0.000662581979499,,0.0,0.0,0.854509515909
1581525927423952813,,0.0792013868111,0.0869565566324,0.000675333110667,,0.0,0.0,0.832998530869
1581525927433866718,,0.0774719566247,0.0860073108701,0.00209416730524,,0.0,0.0,0.839450305695
1581525927444630814,,0.0740412313941,0.0840322779555,0.00364992897811,,0.0,0.0,0.826917046799
1581525927454093593,,0.0801620159311,0.0872048278281,0.00523343360253,,0.0,0.0,0.848471950229
1581525927464085595,,0.0753362543372,0.0850655149483,0.00688562533576,,0.0,0.0,0.830563153361
1581525927474018750,,0.0773157777393,0.0861067841365,0.00853639504301,,0.0,0.0,0.845561590233
1581525927484169871,,0.0782337019341,0.0862440948207,0.0101786208356,,0.0,0.0,0.845032605868
1581525927494290410,,0.0764933943781,0.0837552646303,0.0119181093762,,0.0,0.0,0.836070896423
1581525927504000879,,0.074492646395,0.0837651454554,0.0136421591243,,0.0,0.0,0.833796283126
1581525927514219257,,0.0740465412633,0.0843394055483,0.0153959290592,,0.0,0.0,0.845081598935
1581525927523834926,,0.0770395662277,0.0834946671123,0.0170738735336,,0.0,0.0,0.83510169089
1581525927533566097,,0.0768689080099,0.0841188981504,0.0186645477874,,0.0,0.0,0.854771514612
