rosbagTimestamp,linear,x,y,z,angular,x,y,z
1581526202067210336,,0.00265886551661,9.38731923903e-05,0.00705178544728,,0.0,0.0,0.534294610501
1581526202077003981,,0.00807970510381,0.000593829886423,0.0071907729199,,0.0,0.0,0.540368304322
1581526202087016952,,0.00568826143897,0.000305560519887,0.00729772309001,,0.0,0.0,0.536220931339
1581526202096933740,,0.00139551641313,0.000284417664438,0.00740769187815,,0.0,0.0,0.542082405447
1581526202107339431,,0.00574938597913,-0.000361535507735,0.00747376286343,,0.0,0.0,0.539986319552
1581526202117063551,,0.007630976225,0.000139724011191,0.00750357414243,,0.0,0.0,0.534912963868
1581526202127245242,,0.00303759493841,-0.000438130959185,0.0075581971457,,0.0,0.0,0.539088695991
1581526202137172524,,0.00639822325595,-0.000206493357999,0.00762524175423,,0.0,0.0,0.53917836398
1581526202146994790,,0.00469909054373,0.000733559833198,0.00774622913104,,0.0,0.0,0.53838175882
1581526202157154832,,0.00478012956272,-0.000537033297306,0.00779761029785,,0.0,0.0,0.536347067952
1581526202169766701,,0.00379118955976,9.13212587766e-05,0.00783432173671,,0.0,0.0,0.540004320737
1581526202176991000,,0.00714447348018,-0.000200952491622,0.00785294776616,,0.0,0.0,0.538612424791
1581526202187250507,,0.00767972921234,-0.000398608648728,0.00788146409916,,0.0,0.0,0.534976176453
1581526202197220548,,0.00133658633966,-0.000380204091355,0.00794902414565,,0.0,0.0,0.539797761751
1581526202207098740,,0.00733428738288,-0.000586297495925,0.00797702367388,,0.0,0.0,0.536480476067
1581526202217029963,,0.00809734591731,-0.00106300135592,0.0080136055748,,0.0,0.0,0.535119922086
1581526202227084830,,0.0023968246175,-0.00105567878856,0.0080447723053,,0.0,0.0,0.537029449969
1581526202237320303,,0.00855401458732,-5.60235131137e-05,0.00804554036988,,0.0,0.0,0.536725447435
1581526202247037292,,0.00435891529005,5.32289493138e-05,0.00812019650718,,0.0,0.0,0.538695138451
1581526202256991273,,0.00558367039182,-0.00135985687714,0.00816750245184,,0.0,0.0,0.54140262846
1581526202267237453,,0.00809568430689,-0.00031447366226,0.00825869255816,,0.0,0.0,0.531000299746
1581526202277078299,,0.00517786885315,-0.000895166054125,0.00826767671708,,0.0,0.0,0.546550178422
1581526202287031961,,0.00440840249576,-0.000941394700243,0.00824457565734,,0.0,0.0,0.538618534109
1581526202297184844,,0.00526166227825,-0.00093410450505,0.00830653945504,,0.0,0.0,0.535281094657
1581526202307261533,,0.00660882680881,-0.000539372631779,0.0083407976262,,0.0,0.0,0.537406087866
1581526202317187356,,0.00964007949055,-0.00174662749432,0.00832988807713,,0.0,0.0,0.537811184316
1581526202326985999,,0.00544131877563,-0.00204431191559,0.0082945628285,,0.0,0.0,0.53968869506
1581526202337271665,,0.00669832891441,-0.00105875391014,0.00831466116889,,0.0,0.0,0.532464636723
1581526202347093850,,0.00328224958045,-0.00115900586934,0.00832586017968,,0.0,0.0,0.537863521192
1581526202357303629,,0.00665112143058,-0.000783423706075,0.00836255983318,,0.0,0.0,0.541447817111
1581526202367139356,,0.00611512443087,-0.00185707980162,0.00835601458302,,0.0,0.0,0.540746943327
1581526202377023721,,0.00655517770459,-0.001573201773,0.00829517874761,,0.0,0.0,0.538367565823
1581526202387246045,,0.00683606167101,-0.00207217706883,0.00828422736933,,0.0,0.0,0.534414566876
1581526202397120740,,0.0072933499207,-0.00169191279042,0.00834286193099,,0.0,0.0,0.537217448645
1581526202407175952,,0.00599740761786,-0.00180818451019,0.0083528925164,,0.0,0.0,0.535093331733
1581526202417001192,,0.00756868760277,-0.00175721259282,0.00838160288713,,0.0,0.0,0.538473320063
1581526202427146018,,0.0064024375333,-0.0023699121756,0.00843067048949,,0.0,0.0,0.533338814229
1581526202437259493,,0.00856378421826,-0.00184047524397,0.00840860753297,,0.0,0.0,0.533322886807
1581526202446978235,,0.0041366550687,-0.0022832510065,0.00841331727039,,0.0,0.0,0.541923061527
1581526202457037392,,0.00712491208028,-0.00251554184361,0.00844648251579,,0.0,0.0,0.53556744662
1581526202467426767,,0.00897474655971,-0.0026831537422,0.00849881280539,,0.0,0.0,0.534420198743
1581526202477051585,,0.00341895596198,-0.00248757575962,0.00852933331782,,0.0,0.0,0.539124445029
1581526202487177121,,0.00979517018994,-0.00303811378595,0.00857300734971,,0.0,0.0,0.537489017805
1581526202497185406,,0.00521286650357,-0.00140118468737,0.00858391737282,,0.0,0.0,0.536382690078
1581526202507152011,,0.00567627312567,-0.00302304619518,0.00861063569398,,0.0,0.0,0.54221899245
1581526202517128425,,0.0079783175351,-0.00240084178509,0.00865045610729,,0.0,0.0,0.537889766858
1581526202527105515,,0.00807372929252,-0.00308858622287,0.00864775157438,,0.0,0.0,0.538154141457
1581526202537149995,,0.00917562577662,-0.00425736003746,0.00868241309741,,0.0,0.0,0.537940263889
1581526202547016041,,0.00602676650737,-0.00179223784185,0.00870488402974,,0.0,0.0,0.53914484625
1581526202557037656,,0.0068240012693,-0.00330290726159,0.00873296660408,,0.0,0.0,0.53336315726
1581526202567350527,,0.00517585437916,-0.00349998948254,0.00879337013298,,0.0,0.0,0.539891150247
1581526202577061619,,0.0107863482885,-0.00441463552647,0.00886911834725,,0.0,0.0,0.537784596764
1581526202587125219,,0.00900623879809,-0.00255724274582,0.0088982995339,,0.0,0.0,0.538884906705
1581526202597048579,,0.00428595888283,-0.00331321602604,0.00892913599738,,0.0,0.0,0.540466665396
1581526202607101672,,0.00784321045042,-0.00316601456228,0.00897197924822,,0.0,0.0,0.533376016443
1581526202617107863,,0.00858041016664,-0.00337135301004,0.00903905167005,,0.0,0.0,0.540140533039
1581526202626966548,,0.00805516030205,-0.00375433304256,0.00911929729703,,0.0,0.0,0.537723362976
1581526202637244922,,0.00973145415475,-0.0048310299236,0.00922596109976,,0.0,0.0,0.538027329979
1581526202647242039,,0.00743301752703,-0.00334952196429,0.00918124725941,,0.0,0.0,0.530480218262
1581526202657064514,,0.00765350570391,-0.00251406562662,0.00926954197263,,0.0,0.0,0.539372836495
1581526202667690167,,0.00940663613024,-0.00519574954522,0.00938352472993,,0.0,0.0,0.540230484627
1581526202676994211,,0.00734624147114,-0.00373632456599,0.00945256967283,,0.0,0.0,0.534985284731
1581526202687158833,,0.00701477157712,-0.00235273877362,0.00945071348565,,0.0,0.0,0.532688100535
1581526202697195388,,0.00671363158244,-0.00384750554449,0.00949549292803,,0.0,0.0,0.537478390084
1581526202707039176,,0.0110373979138,-0.00496305102657,0.00953494681075,,0.0,0.0,0.536104532569
1581526202717075281,,0.00902152098584,-0.00335781805814,0.0095904235488,,0.0,0.0,0.537778450837
1581526202727017972,,0.00849227815154,-0.00407385139536,0.00966416763194,,0.0,0.0,0.534708694396
1581526202737374029,,0.00714893704688,-0.00366050702296,0.00970669245036,,0.0,0.0,0.536385865499
1581526202747237954,,0.0069703996272,-0.00251568186362,0.00973116012363,,0.0,0.0,0.535890990256
1581526202757207067,,0.011264803519,-0.00501155672475,0.00979205495302,,0.0,0.0,0.533548878797
1581526202766980184,,0.0034589435394,-0.00275389830493,0.00985794464364,,0.0,0.0,0.538127591968
1581526202777091286,,0.0118044091796,-0.00469886625825,0.00990881203353,,0.0,0.0,0.535562157881
1581526202787044115,,0.0105942253076,-0.00264195607756,0.00989503698777,,0.0,0.0,0.536829920996
1581526202797208534,,0.00333044700801,-0.00338287170508,0.0099332306677,,0.0,0.0,0.528495048419
1581526202807321814,,0.00997998219092,-0.0037804593317,0.0100462735869,,0.0,0.0,0.539482285134
1581526202817130286,,0.00926475459881,-0.00358641379213,0.0101230632408,,0.0,0.0,0.534138848091
1581526202827071303,,0.0122654851189,-0.00396172194231,0.010290375662,,0.0,0.0,0.54298985032
1581526202837316648,,0.00702450534388,-0.00357973650665,0.010309261157,,0.0,0.0,0.53885566986
1581526202847073288,,0.00723146465567,-0.00199795354436,0.010387270374,,0.0,0.0,0.53449965563
1581526202857242465,,0.00847185373864,-0.00369618680426,0.0104144020686,,0.0,0.0,0.541143524259
1581526202867221183,,0.011856525724,-0.00448915084847,0.0104601125917,,0.0,0.0,0.536811470716
1581526202876991526,,0.00765469241356,-0.00203569554237,0.0104958446819,,0.0,0.0,0.533694724398
1581526202887052620,,0.0132926315004,-0.00344673522678,0.0106044751554,,0.0,0.0,0.534816631731
1581526202897154171,,0.00447127273165,-0.00205383340132,0.0106618749223,,0.0,0.0,0.538335320264
1581526202907069295,,0.0115873398537,-0.00410020471121,0.0106790628459,,0.0,0.0,0.534105709415
1581526202917350042,,0.0105276609658,-0.0029498674368,0.0107123358463,,0.0,0.0,0.528687176718
1581526202927159156,,0.00612906102097,-0.00226157012488,0.0107258500784,,0.0,0.0,0.544059733201
1581526202937366524,,0.0119037461859,-0.00236774498139,0.0107208186935,,0.0,0.0,0.537595800357
1581526202947117084,,0.00755521339984,-0.00209670116339,0.0107688019751,,0.0,0.0,0.537836108974
1581526202957005172,,0.00954509203284,-0.0028940024827,0.0108561357184,,0.0,0.0,0.538500940846
1581526202967203879,,0.0120662743632,-0.00274263592823,0.0108966824791,,0.0,0.0,0.532864158209
1581526202977077626,,0.0103547443711,-0.0015863670597,0.0109220399945,,0.0,0.0,0.538047269765
1581526202987106693,,0.00917913047647,-0.00261325528742,0.0109318762774,,0.0,0.0,0.539812691387
1581526202997206286,,0.00707244103801,-0.00112786618984,0.0109980285104,,0.0,0.0,0.536820634853
1581526203007082595,,0.0094692907974,-0.00165149744,0.0111053986082,,0.0,0.0,0.536575003392
1581526203017367753,,0.0102270119168,-0.00229306629531,0.0111940822616,,0.0,0.0,0.530665215771
1581526203026982201,,0.0141785059215,-0.00142778621402,0.01120883144,,0.0,0.0,0.54456093746
1581526203037291274,,0.00524114900104,-0.00113734244829,0.0112312397448,,0.0,0.0,0.540121599787
1581526203047160983,,0.0110155962293,-0.00171400518652,0.0113145905375,,0.0,0.0,0.538561639974
1581526203057179131,,0.0090520296969,-0.00122308749464,0.0113832114187,,0.0,0.0,0.537387931815
1581526203067183095,,0.0132539867969,-0.00177164715169,0.0114736528427,,0.0,0.0,0.538688049591
1581526203077100685,,0.00985568621953,-0.00108560817888,0.0115456696341,,0.0,0.0,0.54006981743
1581526203087076692,,0.00626545724342,-0.00105131712723,0.011538029604,,0.0,0.0,0.541449882189
1581526203097162385,,0.0101262851123,-0.00133779666905,0.0115871293637,,0.0,0.0,0.535785686172
1581526203107349867,,0.00919209184587,-0.00140359473451,0.0116329160581,,0.0,0.0,0.540337243012
1581526203117099713,,0.0128003011747,-0.000611809659877,0.0116761036839,,0.0,0.0,0.540559852431
1581526203127119648,,0.0109523784811,-0.000902390073018,0.0117426527196,,0.0,0.0,0.541205406344
1581526203137134757,,0.00950719980866,-0.000900936534192,0.011827369397,,0.0,0.0,0.538311865531
1581526203146936695,,0.00802457434948,-0.000672849739138,0.01187699893,,0.0,0.0,0.544488641012
1581526203156994852,,0.0116103533488,-0.000338600877345,0.0118687834885,,0.0,0.0,0.535935389073
1581526203167259833,,0.00431705608643,-0.000846572412439,0.0120013197399,,0.0,0.0,0.542932912866
1581526203177077949,,0.0127055824083,0.000141711292908,0.0121948336932,,0.0,0.0,0.543360899012
1581526203186894550,,0.0106465991798,0.000144627144514,0.0122686040957,,0.0,0.0,0.545260400405
1581526203197306621,,0.0068505182094,-0.00059077858826,0.012315912558,,0.0,0.0,0.541701981707
1581526203207205319,,0.0124048645204,-0.00113175928453,0.0123238429056,,0.0,0.0,0.54115375781
1581526203217630365,,0.00699508654345,-0.000543342211184,0.0123162992049,,0.0,0.0,0.535030533229
1581526203227191297,,0.0107794025525,0.000287170361589,0.012357438459,,0.0,0.0,0.548443939363
1581526203237193785,,0.0112361338658,0.000508458806225,0.0125115128521,,0.0,0.0,0.541954894137
1581526203247175678,,0.0063361935965,1.2749952384e-05,0.0125824300607,,0.0,0.0,0.543739115895
1581526203257121777,,0.0112565098687,0.000220005811479,0.0125720336352,,0.0,0.0,0.5441015787
1581526203267106301,,0.0111408920848,0.00050193542989,0.012635093242,,0.0,0.0,0.544811841063
1581526203277130029,,0.00854095242949,0.000713055323112,0.0127159551228,,0.0,0.0,0.544359083037
1581526203287056932,,0.0111387561967,0.0012540946556,0.0127760274597,,0.0,0.0,0.542808620567
1581526203297180230,,0.00595131152089,-0.000100302928019,0.0128481347424,,0.0,0.0,0.54345153692
1581526203306976602,,0.00889607139362,0.00112390165705,0.0128977877349,,0.0,0.0,0.547050374355
1581526203317270715,,0.010438408992,0.00104087456763,0.0129330131035,,0.0,0.0,0.541443536771
1581526203327036499,,0.00984119884718,0.00072671281032,0.0129221086214,,0.0,0.0,0.542914832682
1581526203337634952,,0.0122864193091,0.00202133490673,0.0130396499906,,0.0,0.0,0.540765745786
1581526203347138229,,0.00731635340325,0.000770764012492,0.0130927493194,,0.0,0.0,0.544088870151
1581526203357150685,,0.00866954397086,0.000845605511421,0.0132339276138,,0.0,0.0,0.543307695124
1581526203367007617,,0.0117688153252,0.00187477326716,0.0132596498155,,0.0,0.0,0.539611888529
1581526203377041538,,0.00654321652085,0.000852253102793,0.0133012614837,,0.0,0.0,0.541969988352
1581526203387089351,,0.0120682005785,0.00251764909703,0.0134264131177,,0.0,0.0,0.540556185534
1581526203397188445,,0.00605753984167,0.000326632151886,0.0135007449521,,0.0,0.0,0.540716479927
1581526203407032343,,0.00919834202515,0.00180346050247,0.0136532718445,,0.0,0.0,0.540918909135
1581526203417048102,,0.0120496962852,0.00239482922513,0.0136859630057,,0.0,0.0,0.540401618037
1581526203427207486,,0.0104476766977,0.00176159161522,0.0136927928102,,0.0,0.0,0.53569185751
1581526203437316640,,0.00606481401468,0.00149449454505,0.0136849180974,,0.0,0.0,0.538280652539
1581526203447321367,,0.00921124872128,0.00135531393209,0.0138963119081,,0.0,0.0,0.537546771281
1581526203457137774,,0.00963163340545,0.00204571264233,0.014030445912,,0.0,0.0,0.537600604444
1581526203467211034,,0.0111288656424,0.00237745787682,0.0140793539783,,0.0,0.0,0.54160202143
1581526203477050747,,0.00879761114149,0.00215936204178,0.0141396053273,,0.0,0.0,0.537231556756
1581526203487013845,,0.00835842256506,0.00143596534384,0.0141756245866,,0.0,0.0,0.538944032031
1581526203497043114,,0.010660316205,0.00246442263043,0.0142074933424,,0.0,0.0,0.537618489596
1581526203507057098,,0.00861093015563,0.00269451589584,0.0144160725271,,0.0,0.0,0.538993758685
1581526203517195806,,0.0101974732069,0.00295384822298,0.0144329020235,,0.0,0.0,0.535080752655
1581526203527358267,,0.00660156289282,0.000684269473167,0.0145090539518,,0.0,0.0,0.537833672042
1581526203537293633,,0.0119074045274,0.00349794795577,0.014619841062,,0.0,0.0,0.537724844879
1581526203547052791,,0.0083160226348,0.00254334503062,0.0146751783335,,0.0,0.0,0.542268219857
1581526203557188967,,0.00693534287452,0.000878799812887,0.0147222186074,,0.0,0.0,0.538664862385
1581526203567085066,,0.00848796137427,0.00266094581337,0.0148249402526,,0.0,0.0,0.540429721947
1581526203577280502,,0.00938245768866,0.00253700366675,0.0148546840809,,0.0,0.0,0.534547689359
1581526203587355907,,0.0114634095247,0.00393871012536,0.0149177066847,,0.0,0.0,0.535116486992
1581526203597050121,,0.00857283726064,0.00245142336632,0.0150127821156,,0.0,0.0,0.547693811289
1581526203607102391,,0.00912261256115,0.00302565469721,0.0151504506393,,0.0,0.0,0.539241476611
1581526203617175616,,0.00552350540586,0.00109373456436,0.0152199853295,,0.0,0.0,0.536100847592
1581526203627199062,,0.00967539255212,0.00269661349627,0.0152507220523,,0.0,0.0,0.538762688906
1581526203637207425,,0.0100735363003,0.00377068740035,0.0153135751835,,0.0,0.0,0.529350190656
1581526203647080201,,0.00713628488937,0.00151064594628,0.0153591752703,,0.0,0.0,0.542734107466
1581526203657238677,,0.0102554062686,0.00369751368767,0.0155279730167,,0.0,0.0,0.536872177409
1581526203667006704,,0.00813406450187,0.0025674785989,0.0156236642804,,0.0,0.0,0.534579339477
1581526203677113656,,0.008629517403,0.00288458359544,0.0156596991636,,0.0,0.0,0.534591185663
1581526203687021696,,0.00858420573544,0.00234186061161,0.0156417430967,,0.0,0.0,0.533530622079
1581526203697285890,,0.00651227232393,0.00173467706239,0.0156831884315,,0.0,0.0,0.535603684955
1581526203706947445,,0.00862201472177,0.00249882534136,0.0157935025689,,0.0,0.0,0.539302204797
1581526203717118116,,0.00925272356773,0.00301630317437,0.0159335631947,,0.0,0.0,0.534038227964
1581526203727090906,,0.00815244547714,0.00200786316437,0.015948466688,,0.0,0.0,0.534114667336
1581526203737365298,,0.00968830085555,0.0035834416752,0.0159783883058,,0.0,0.0,0.530090532583
1581526203747201502,,0.00486873168386,0.00116326431291,0.0159862352136,,0.0,0.0,0.540371036479
1581526203757222081,,0.00948841148277,0.00306534234445,0.0160128542648,,0.0,0.0,0.53496880254
1581526203767203573,,0.00910860056568,0.00283896795342,0.0161378136549,,0.0,0.0,0.531770728401
1581526203777169398,,0.00601637150872,0.00137343510514,0.0161429682583,,0.0,0.0,0.532824402367
1581526203787039163,,0.0100503104137,0.00359235945513,0.016141778786,,0.0,0.0,0.53491687625
1581526203797239335,,0.00612798385513,0.0014686477307,0.0162071586436,,0.0,0.0,0.534215936895
1581526203807198473,,0.00789739195489,0.00215191876129,0.0162770594574,,0.0,0.0,0.534019189661
1581526203817264941,,0.00837888887379,0.00290081237577,0.0163848122897,,0.0,0.0,0.528858059692
1581526203826997924,,0.00902708629098,0.00176538453199,0.0163939539314,,0.0,0.0,0.541011121971
1581526203837288941,,0.00762590613647,0.00227591012106,0.0164080765492,,0.0,0.0,0.531177104314
1581526203847070067,,0.00490764061277,0.00153483209029,0.0164572769801,,0.0,0.0,0.533294240398
1581526203857008601,,0.00866785290755,0.00205630168626,0.0165514584238,,0.0,0.0,0.534698894545
1581526203867217390,,0.00915258092558,0.00265479252061,0.0166743057702,,0.0,0.0,0.531724449833
1581526203876942427,,0.00553694040787,0.00151570060258,0.016684421637,,0.0,0.0,0.534588201692
1581526203887128507,,0.00805657785656,0.00181422956151,0.0166663115853,,0.0,0.0,0.530615646531
1581526203897144378,,0.00774661417951,0.00238099880789,0.0167178273136,,0.0,0.0,0.532377439414
1581526203907062176,,0.00514382610209,0.00131705235858,0.0167777392566,,0.0,0.0,0.531502920649
1581526203917358452,,0.00879868655006,0.00259302269965,0.016858864014,,0.0,0.0,0.524764572347
1581526203927056768,,0.00657368160914,0.000890475755703,0.0168690891881,,0.0,0.0,0.534097188873
1581526203937512679,,0.00838439463537,0.00241058413484,0.0168747372233,,0.0,0.0,0.528396564867
1581526203947147704,,0.00554021192251,0.00184791545502,0.0169101184528,,0.0,0.0,0.53178273655
1581526203957087807,,0.00821537861566,0.00213587387303,0.0170566613222,,0.0,0.0,0.532010862383
1581526203967203528,,0.0049034807436,0.000692462692003,0.017113197085,,0.0,0.0,0.531834978645
1581526203977213041,,0.00678185895702,0.00168600993203,0.0171376216855,,0.0,0.0,0.526001666687
1581526203987086373,,0.00919926297399,0.00226382744408,0.0171468394182,,0.0,0.0,0.535963582279
1581526203997106709,,0.00746674960682,0.00145701271124,0.0171491727861,,0.0,0.0,0.528946162724
1581526204007062677,,0.0038781971023,0.00101822135188,0.0172221194931,,0.0,0.0,0.530708749898
1581526204017187119,,0.00816497101752,0.00189874753722,0.0173192968467,,0.0,0.0,0.529427645458
1581526204027234952,,0.00705809975306,0.00109245742599,0.0174141268911,,0.0,0.0,0.528526018328
1581526204037236707,,0.00806799741998,0.00323096381389,0.0174533535604,,0.0,0.0,0.533006219201
1581526204047199632,,0.005512401864,0.00120899660339,0.0174697844417,,0.0,0.0,0.532507674571
1581526204057132368,,0.00832788861838,0.00112674596488,0.0175017662509,,0.0,0.0,0.533044559348
1581526204067514919,,0.00674272017773,0.00117561237754,0.0175498900566,,0.0,0.0,0.521097462482
1581526204077163705,,0.00557853825322,0.00144394053514,0.0175983349093,,0.0,0.0,0.539538025947
1581526204087097051,,0.00782891235557,0.00116425256298,0.0176005756517,,0.0,0.0,0.532559556516
1581526204097165742,,0.00506561953423,0.000499299823221,0.0176633106831,,0.0,0.0,0.531888061866
1581526204107122615,,0.00661189413597,0.00142812767135,0.0176207470006,,0.0,0.0,0.524890021352
1581526204117217928,,0.00743239502264,0.00182198869389,0.0176568779331,,0.0,0.0,0.531717355181
1581526204127152288,,0.00654148098182,0.000422786813144,0.0176656933778,,0.0,0.0,0.536922890708
1581526204137338888,,0.00644610899113,0.0012030150667,0.0176249408662,,0.0,0.0,0.53175289832
1581526204147074297,,0.00744555692637,0.00200383411778,0.0176361597446,,0.0,0.0,0.534698679032
1581526204157067131,,0.00626027632553,0.000772736999888,0.0176352491879,,0.0,0.0,0.532955038366
1581526204167069598,,0.00653076189373,0.000596635309761,0.0175855182843,,0.0,0.0,0.537288790759
1581526204177148072,,0.00651008414449,0.00128154476624,0.0175532272684,,0.0,0.0,0.534466753113
1581526204187070733,,0.00696493959572,0.000298685140747,0.0174142921541,,0.0,0.0,0.534508392241
1581526204197025730,,0.00420909240002,0.00025374828509,0.0173773404511,,0.0,0.0,0.534735572578
1581526204207265739,,0.00742835172638,0.0014924159309,0.017350421992,,0.0,0.0,0.532435714971
1581526204217132084,,0.00731894876967,0.000709843222834,0.0173492898801,,0.0,0.0,0.531547336476
1581526204227071116,,0.00690426333104,0.000765020900672,0.0172428416734,,0.0,0.0,0.539796560864
1581526204237268655,,0.00419878318082,0.000744947651929,0.0171807352007,,0.0,0.0,0.533162884478
1581526204247166394,,0.00683271928373,0.000657594221308,0.0170721201392,,0.0,0.0,0.534409646924
1581526204257100475,,0.00784228686504,0.00109763300721,0.0170380741755,,0.0,0.0,0.539636584542
1581526204267064194,,0.00682310394018,0.00117775574054,0.0170347100858,,0.0,0.0,0.533330075648
1581526204277078962,,0.00605736623849,0.00122692865249,0.0170276133094,,0.0,0.0,0.539067498604
1581526204287075766,,0.00698655084814,-0.00031126797536,0.0168508790362,,0.0,0.0,0.531018287982
1581526204297174373,,0.00617067685393,0.000365131954614,0.0165993731889,,0.0,0.0,0.527901928376
1581526204307119551,,0.00638667126985,0.00123074252717,0.0165494705375,,0.0,0.0,0.53951970364
1581526204317306745,,0.00725284687869,0.00091538694846,0.0165136595642,,0.0,0.0,0.532777621557
1581526204327131951,,0.00445574876912,0.000116721880774,0.0164636004445,,0.0,0.0,0.531530152799
1581526204337295786,,0.0076781552009,0.0010055156675,0.0163219643547,,0.0,0.0,0.536674352321
1581526204347123523,,0.0046915049833,0.000378471171855,0.0162295291545,,0.0,0.0,0.540016263725
1581526204357060969,,0.00758328481155,0.000244286925387,0.0160989538303,,0.0,0.0,0.535471674514
1581526204367200788,,0.00439507410331,0.000489644137022,0.0160397093896,,0.0,0.0,0.535790957567
1581526204377025508,,0.00708977399501,0.000169094734729,0.015927096445,,0.0,0.0,0.534436620702
1581526204387248670,,0.00694316987717,-0.000113043415285,0.0158710442582,,0.0,0.0,0.53617480657
1581526204397215030,,0.00561893812684,0.000382398829106,0.0157741961064,,0.0,0.0,0.537374612694
1581526204407158464,,0.0072286750385,0.000150983958092,0.0156372598767,,0.0,0.0,0.534894614784
1581526204417240963,,0.00509833038584,-0.000132604816936,0.0155946026713,,0.0,0.0,0.537450509077
1581526204427156779,,0.0060751538936,0.00019183608738,0.0155742537965,,0.0,0.0,0.535604009591
1581526204437361855,,0.00710396007802,0.000336889058132,0.0155063069492,,0.0,0.0,0.53641848539
1581526204447346735,,0.00400142663358,-0.000492401297622,0.0154894213229,,0.0,0.0,0.54013856777
1581526204457349568,,0.00706451922094,-0.000342842269106,0.0153813998565,,0.0,0.0,0.532217126808
1581526204467586134,,0.00564917294471,0.000608494152417,0.0153270329263,,0.0,0.0,0.535616570604
1581526204477164169,,0.00508335116947,-0.000687546647955,0.0152777882256,,0.0,0.0,0.538054871442
1581526204487011953,,0.0060769704263,-0.000704783621878,0.0151947608084,,0.0,0.0,0.539884428358
1581526204496950282,,0.00518548482431,0.000120130460516,0.0151542686176,,0.0,0.0,0.535679094084
1581526204507090250,,0.0061622781303,-0.000455695960362,0.0151165518296,,0.0,0.0,0.533644566229
1581526204517131812,,0.0049839358673,-0.000845501676752,0.0150678600293,,0.0,0.0,0.537368904361
1581526204526950843,,0.00532701710355,-0.000118921793474,0.0150502441011,,0.0,0.0,0.537500328711
1581526204537195613,,0.00541173879193,-0.000496817103425,0.014992814298,,0.0,0.0,0.53495331094
1581526204547154662,,0.00383477810693,-0.00116415431857,0.0149850951181,,0.0,0.0,0.536346486574
1581526204557069986,,0.00500928922275,-0.00146297938695,0.0148519475218,,0.0,0.0,0.532043442854
1581526204567087645,,0.00555966761894,-0.000329575696048,0.0148070264101,,0.0,0.0,0.537363692832
1581526204577130269,,0.00396084712293,-0.00109214038705,0.0148101885947,,0.0,0.0,0.532724217709
1581526204587148854,,0.00489790184616,-0.00139127464288,0.0147820237909,,0.0,0.0,0.538358008079
1581526204597166390,,0.00565640857552,4.84898679015e-05,0.01477172458,,0.0,0.0,0.538307917353
1581526204607147906,,0.00346521844811,-0.0018524786945,0.014738991892,,0.0,0.0,0.530249278999
1581526204617039540,,0.00465853346412,-0.00138516674901,0.0146826579027,,0.0,0.0,0.542466680655
1581526204627346060,,0.00655073120841,-0.000276689747272,0.01473604804,,0.0,0.0,0.537601863351
1581526204637249167,,0.00461268373867,-0.00227907419508,0.0147100682228,,0.0,0.0,0.534344613042
1581526204647105473,,0.0032860713905,-0.000689518866266,0.0146955504328,,0.0,0.0,0.537998384952
1581526204657058207,,0.00557032257063,-0.00162939428566,0.0146672290908,,0.0,0.0,0.534586474337
1581526204667477745,,0.00426809145748,-0.00243365898967,0.0145811053383,,0.0,0.0,0.530110767724
1581526204677214982,,0.00377441945621,-0.00102760927688,0.0145661306255,,0.0,0.0,0.539152172848
1581526204687385416,,0.00505549211823,-0.00190590761875,0.0145632281766,,0.0,0.0,0.529234147589
1581526204697192098,,0.00422412288979,-0.00208751516832,0.0145185986257,,0.0,0.0,0.528162267732
1581526204706998466,,0.00416565805726,-0.00173980675112,0.0145232375262,,0.0,0.0,0.538641749677
1581526204717418903,,0.00270272597329,-0.00269524333976,0.0145308416835,,0.0,0.0,0.526837835694
1581526204727125614,,0.00657388653785,-0.00103428921259,0.0145121760874,,0.0,0.0,0.534759945176
1581526204737237471,,0.00412351963719,-0.00269996199201,0.0144884089924,,0.0,0.0,0.533732415098
1581526204747207691,,0.00245533518824,-0.00155166302419,0.0144975424754,,0.0,0.0,0.525572636871
1581526204757191731,,0.00507355664254,-0.00287191943621,0.0144771533037,,0.0,0.0,0.531648986761
1581526204767043077,,0.00218345949182,-0.00185521230272,0.0144873469956,,0.0,0.0,0.531097250649
1581526204777063744,,0.00411372162307,-0.00365787797187,0.014520349549,,0.0,0.0,0.527476548226
1581526204787108771,,0.00719591393361,-0.00122251186802,0.0145186679654,,0.0,0.0,0.529908626979
1581526204797088530,,0.00310811936713,-0.00377635308318,0.0144039483277,,0.0,0.0,0.524928060285
1581526204807126963,,0.00292252995796,-0.0025996419482,0.0144105339009,,0.0,0.0,0.522972569545
1581526204817305421,,0.00515543697867,-0.00155385568889,0.0143793963399,,0.0,0.0,0.528062173609
1581526204827085176,,0.00411525828831,-0.00300552376361,0.0143825201845,,0.0,0.0,0.528999855888
1581526204837394007,,0.00430439455439,-0.00355068335051,0.0143696454759,,0.0,0.0,0.520680548017
1581526204847025389,,0.00391465183353,-0.00193994532267,0.0143007550202,,0.0,0.0,0.528674174847
1581526204857157622,,0.0052683568699,-0.00381494156495,0.0142975437059,,0.0,0.0,0.520893248326
1581526204867258329,,0.00328794723561,-0.00361594694096,0.0142890800337,,0.0,0.0,0.526139663443
1581526204877022509,,0.00119652660982,-0.00384846101507,0.0142559917327,,0.0,0.0,0.526567438554
1581526204887120979,,0.00634635889489,-0.00259672931945,0.0142328487958,,0.0,0.0,0.524781638979
1581526204897328281,,0.00212407603822,-0.00322478288299,0.0142504908453,,0.0,0.0,0.523584746933
1581526204907097374,,0.00446214878889,-0.00286137479029,0.0141866582755,,0.0,0.0,0.523110238796
1581526204917108306,,0.00550269668712,-0.0044513860424,0.0142172913794,,0.0,0.0,0.520948968863
1581526204927144205,,0.00355053103925,-0.00293917210568,0.0142227496095,,0.0,0.0,0.527145453422
1581526204937282198,,0.00310633181578,-0.00358157705289,0.0141919873632,,0.0,0.0,0.524718992239
1581526204947350407,,0.00576808867617,-0.00259637940321,0.0142089850864,,0.0,0.0,0.520713873335
1581526204957196081,,0.00280759741307,-0.00529994341904,0.0141176267366,,0.0,0.0,0.520707673678
1581526204967051531,,0.0036533553482,-0.00418564822107,0.0140640119295,,0.0,0.0,0.532714958862
1581526204976989237,,0.00418335051175,-0.00222031783206,0.0140767225754,,0.0,0.0,0.523362022425
1581526204987047969,,0.00439690987817,-0.00499850944778,0.0140225783118,,0.0,0.0,0.52364588212
1581526204996986120,,0.00395359203651,-0.00370774163673,0.0140053427907,,0.0,0.0,0.527239607052
1581526205007217332,,0.00313760276867,-0.00257737903418,0.0139714505573,,0.0,0.0,0.518135824842
1581526205017167627,,0.00473800185485,-0.00502832037735,0.0139236160027,,0.0,0.0,0.526651015401
1581526205027013747,,0.00305766773253,-0.00320362189123,0.0139312229776,,0.0,0.0,0.524197736
1581526205037366517,,0.00430026969108,-0.00338517835257,0.013929768144,,0.0,0.0,0.525183675227
1581526205047014578,,0.00498741465557,-0.00446529238861,0.0139061766104,,0.0,0.0,0.53012203504
1581526205057137274,,0.00298381379574,-0.00476108471797,0.0137956334829,,0.0,0.0,0.523513244551
1581526205067403090,,0.00319027603031,-0.00581063579109,0.0136912145226,,0.0,0.0,0.526291608322
1581526205077237472,,0.00381023946671,-0.00395450672804,0.0136871686128,,0.0,0.0,0.519272004708
1581526205087223021,,0.00452941941735,-0.00359718194734,0.0136521243729,,0.0,0.0,0.529996777787
1581526205097184452,,0.00378480317306,-0.00605023409199,0.0136734815347,,0.0,0.0,0.527966854893
1581526205107135308,,0.0040955741596,-0.00296449405325,0.0136469024568,,0.0,0.0,0.521275039108
1581526205117048113,,0.00448324303914,-0.00598778731081,0.0135113244087,,0.0,0.0,0.527579818312
1581526205127140317,,0.0039395258722,-0.00334124768313,0.0134994412482,,0.0,0.0,0.521970831162
1581526205137427571,,0.00345605093941,-0.00519998249626,0.0134425058427,,0.0,0.0,0.524262379468
1581526205147081737,,0.00426286561152,-0.00563717936612,0.0134708982354,,0.0,0.0,0.526624170039
1581526205157034644,,0.00494472011005,-0.0045998251176,0.0135024404825,,0.0,0.0,0.52436843364
1581526205167235428,,0.00244749939288,-0.00340053448406,0.0135032552422,,0.0,0.0,0.526565721465
1581526205177020427,,0.0051946926415,-0.00485519271015,0.0134867286502,,0.0,0.0,0.52832929151
1581526205187014300,,0.00434953077,-0.00559634145115,0.0135531937477,,0.0,0.0,0.528229129244
1581526205197176825,,0.00320343095451,-0.00662381494754,0.013660477211,,0.0,0.0,0.525048338141
1581526205206970682,,0.00349144331665,-0.00494749013058,0.0136958980393,,0.0,0.0,0.52905757853
1581526205217127466,,0.00504655829984,-0.00382702449693,0.013668832803,,0.0,0.0,0.525523028236
1581526205227197044,,0.00341651450456,-0.00488316127046,0.0137127402623,,0.0,0.0,0.526168034664
1581526205237346328,,0.00521726794355,-0.00658444741071,0.0138656913127,,0.0,0.0,0.528071202477
1581526205247171517,,0.00359110433444,-0.00366365330568,0.0139338630191,,0.0,0.0,0.529880557991
1581526205256932215,,0.00477858619501,-0.00727302975459,0.0140332016204,,0.0,0.0,0.534606758988
1581526205267190315,,0.00491224976678,-0.0052058891362,0.0140346218408,,0.0,0.0,0.527871661728
1581526205277248497,,0.0045414338372,-0.00375331687499,0.0140916298086,,0.0,0.0,0.529085689335
1581526205287135655,,0.00532687986427,-0.00724873280283,0.0142077087612,,0.0,0.0,0.52827589342
1581526205297065692,,0.00209966935549,-0.00388931595259,0.0142965331335,,0.0,0.0,0.52743324038
1581526205307078694,,0.00413530157789,-0.00706047708659,0.0143961499956,,0.0,0.0,0.527290702975
1581526205317105920,,0.00669624046425,-0.0051789645879,0.0144000779295,,0.0,0.0,0.526133976879
1581526205327046517,,0.0033899674033,-0.00389682663925,0.0144740334216,,0.0,0.0,0.528564158631
1581526205337230467,,0.00535057205501,-0.00551814292351,0.0145639703528,,0.0,0.0,0.526281596982
1581526205347243736,,0.00362524640263,-0.0062191354972,0.0146816513029,,0.0,0.0,0.527733551923
1581526205357225834,,0.00469688910757,-0.0054980766648,0.0148256587039,,0.0,0.0,0.529519985184
1581526205367114501,,0.0055306458402,-0.00681229436915,0.0148594078899,,0.0,0.0,0.525643801606
1581526205377148357,,0.00375882678217,-0.00402839077734,0.0149098080826,,0.0,0.0,0.529949986713
1581526205387137332,,0.00633355551921,-0.00587566781922,0.0149946155466,,0.0,0.0,0.527686307456
1581526205397079694,,0.00409401257471,-0.00575341656845,0.0152094442033,,0.0,0.0,0.526195095496
1581526205407091444,,0.00641510219638,-0.00605249144891,0.0153347261095,,0.0,0.0,0.527638667667
1581526205417098568,,0.00596587699056,-0.00766039584127,0.0154519716525,,0.0,0.0,0.520252602546
1581526205426956924,,0.00434404960943,-0.00410694776637,0.0155190327602,,0.0,0.0,0.524060113906
1581526205437288772,,0.0060060676778,-0.00547835633228,0.0156287464716,,0.0,0.0,0.524433280681
1581526205447197580,,0.00668013560162,-0.00556176785956,0.0158635935539,,0.0,0.0,0.528979939958
1581526205457229307,,0.00520390806068,-0.00587156805123,0.0160889520087,,0.0,0.0,0.526477089034
1581526205467035140,,0.00636579150601,-0.0071417085076,0.0162154413972,,0.0,0.0,0.527960486089
1581526205477235028,,0.00487338650182,-0.00484597863564,0.0162751777804,,0.0,0.0,0.52288516288
1581526205487046731,,0.00683957360402,-0.00592537028401,0.0164272501139,,0.0,0.0,0.527079901817
1581526205497150856,,0.00737502486041,-0.0068698549053,0.0167380192858,,0.0,0.0,0.520628856122
1581526205507027201,,0.00512664564877,-0.00616386593281,0.0169781156906,,0.0,0.0,0.526569328364
1581526205516912905,,0.00730700902922,-0.00593141896344,0.0171288051031,,0.0,0.0,0.525445732862
1581526205527076469,,0.00559881134326,-0.0038787148141,0.0172145057055,,0.0,0.0,0.52050700407
1581526205537338389,,0.00711613255416,-0.00563180654048,0.0173849637752,,0.0,0.0,0.51944097992
1581526205546914028,,0.00809452331863,-0.00700868532129,0.0177028716076,,0.0,0.0,0.525810025516
1581526205557090029,,0.00738171402519,-0.00589586707139,0.0179498130111,,0.0,0.0,0.524054696297
1581526205567106820,,0.005747811423,-0.00407526122222,0.0181491660923,,0.0,0.0,0.523793581725
1581526205577114095,,0.00653539134381,-0.00615947154413,0.0182223525027,,0.0,0.0,0.521078148686
1581526205587047789,,0.00868940850428,-0.00504674997898,0.0184423365829,,0.0,0.0,0.526251353155
1581526205597014487,,0.008656103127,-0.00656077138872,0.0188154651898,,0.0,0.0,0.520638294785
1581526205607193700,,0.00711669840609,-0.00467713921012,0.01907324491,,0.0,0.0,0.521010213223
1581526205617225428,,0.00756326121465,-0.00571462200804,0.019347995655,,0.0,0.0,0.526092283349
1581526205627096414,,0.0065735421264,-0.0036219700286,0.0194780285046,,0.0,0.0,0.526017338154
1581526205637498007,,0.00741016399262,-0.00613958925683,0.019671086474,,0.0,0.0,0.522759593237
1581526205647083585,,0.00764481296078,-0.00520831448911,0.0199166971003,,0.0,0.0,0.526055879653
1581526205657005157,,0.00951560129493,-0.0059079280813,0.0202939095806,,0.0,0.0,0.525709638587
1581526205667361483,,0.00644241885291,-0.00528589779387,0.0206100429301,,0.0,0.0,0.524120519014
1581526205677192938,,0.0072482147117,-0.00364022346346,0.020721045656,,0.0,0.0,0.526247342864
1581526205687247367,,0.00861705798631,-0.00471314287812,0.0209636347783,,0.0,0.0,0.535394103397
1581526205697243711,,0.00716175960862,-0.00463607406637,0.0211063531393,,0.0,0.0,0.520820262631
1581526205707028818,,0.0103755072023,-0.00546369386347,0.0214278746102,,0.0,0.0,0.535145898106
1581526205717045893,,0.00815966202589,-0.00491211849816,0.0217180842368,,0.0,0.0,0.526011772731
1581526205727073404,,0.00657957123287,-0.00321862321167,0.0218656477166,,0.0,0.0,0.53266994925
1581526205736964210,,0.0087849259381,-0.0043848918252,0.0220719695095,,0.0,0.0,0.530777540009
1581526205747031996,,0.00869355969736,-0.00598294145502,0.0222766846712,,0.0,0.0,0.530020680901
1581526205757013452,,0.00727458976723,-0.00275025401391,0.0224257203101,,0.0,0.0,0.5297259138
1581526205767138287,,0.0105628771148,-0.00575642765047,0.0227214082396,,0.0,0.0,0.531753720921
1581526205777018622,,0.00645525318858,-0.00340895506938,0.0228059979959,,0.0,0.0,0.533013488933
1581526205787103596,,0.00921321957266,-0.00302632862848,0.0229785197714,,0.0,0.0,0.531595427759
1581526205797250416,,0.00719624017191,-0.0041098420132,0.0230801742737,,0.0,0.0,0.532725338748
1581526205807061472,,0.00787945121325,-0.00423658079467,0.0231809602114,,0.0,0.0,0.53091636288
1581526205817116246,,0.0110178880062,-0.00361027866827,0.0233621513034,,0.0,0.0,0.53359023075
1581526205827155047,,0.00700872143083,-0.00277754699489,0.0234432987842,,0.0,0.0,0.531899994317
1581526205837226847,,0.00826750388595,-0.00401572821732,0.0235480121225,,0.0,0.0,0.533436626047
1581526205847008528,,0.0103201734736,-0.00340077197141,0.0235900776778,,0.0,0.0,0.532740720908
1581526205857170958,,0.00686059686924,-0.00269421300831,0.0236311473218,,0.0,0.0,0.532458689909
1581526205867016899,,0.00971446405583,-0.00365384339707,0.023708039313,,0.0,0.0,0.535365593068
1581526205877232005,,0.00655007640184,-0.00244118560108,0.0237103963138,,0.0,0.0,0.532483834112
1581526205886938865,,0.00915486671165,-0.0033547120845,0.0237870529074,,0.0,0.0,0.535265304452
1581526205897142749,,0.0105411672501,-0.00268972794032,0.0237597647905,,0.0,0.0,0.532343306045
1581526205907109634,,0.0054088018128,-0.00287536585892,0.0237924466023,,0.0,0.0,0.532890527646
1581526205917150338,,0.00840696663504,-0.00226675667489,0.023829772887,,0.0,0.0,0.536294277707
1581526205927216017,,0.00724816143472,-0.00190344321982,0.0238324794666,,0.0,0.0,0.538386059894
1581526205937368362,,0.00798761059528,-0.00256900894396,0.0237809487733,,0.0,0.0,0.537824298851
1581526205947083316,,0.00979266265952,-0.00155317528228,0.0237270317123,,0.0,0.0,0.536715181156
1581526205957039928,,0.00838598286865,-0.00209181417236,0.0236824067404,,0.0,0.0,0.538676677919
1581526205967129285,,0.00521410166919,-0.00264799204286,0.0236807191193,,0.0,0.0,0.5386200289
1581526205977327821,,0.00919379118157,-0.00124501988546,0.0236094473111,,0.0,0.0,0.541987994987
1581526205987282934,,0.00828525379781,-0.00167705429725,0.0235553059027,,0.0,0.0,0.537266640544
1581526205997002417,,0.00925354683156,-0.00181394363508,0.0235014350839,,0.0,0.0,0.540599841115
1581526206007095139,,0.00542889353036,-0.00162756345547,0.0234763077159,,0.0,0.0,0.542279481856
1581526206017238870,,0.00771852626521,-0.00080751074979,0.0233556621637,,0.0,0.0,0.539949186674
1581526206027150640,,0.00746419955687,-0.00166270982616,0.0233036226998,,0.0,0.0,0.542997886385
1581526206037288471,,0.00607625532824,-0.00155186239628,0.0232177806067,,0.0,0.0,0.540586945718
1581526206047238761,,0.00954764950416,-0.000366587287985,0.0231203781758,,0.0,0.0,0.539634198411
1581526206057120431,,0.00821294652815,-0.000531412350636,0.0229647345253,,0.0,0.0,0.536311448077
1581526206067117056,,0.00613345002385,-0.00133786945945,0.0228247590976,,0.0,0.0,0.54334944008
1581526206077228717,,0.00752237825113,-0.000619379857303,0.0227684840052,,0.0,0.0,0.539365453336
1581526206087110309,,0.0066824528192,-0.00072219570431,0.0226319130811,,0.0,0.0,0.543359584334
1581526206097233583,,0.00666212388557,-0.00102126094152,0.0225548450846,,0.0,0.0,0.543397958275
1581526206107046822,,0.00653575255133,-0.000276585995199,0.0224173085889,,0.0,0.0,0.545998920506
1581526206117137675,,0.00675603116477,-8.25866393611e-05,0.0222160764171,,0.0,0.0,0.544011553997
1581526206127281762,,0.00799793385744,-0.000910503774199,0.0221236966428,,0.0,0.0,0.541036425359
1581526206137475219,,0.00459040384415,-0.00063075435368,0.0219723195085,,0.0,0.0,0.541135767659
1581526206147021084,,0.00759897195477,0.000855900610916,0.0217723000967,,0.0,0.0,0.544973922791
1581526206157300124,,0.00821469930526,-0.000460577627541,0.021662460839,,0.0,0.0,0.54174553584
1581526206167223965,,0.00673287118784,0.000213619899149,0.0214184962349,,0.0,0.0,0.538594748466
1581526206177070344,,0.00620721502171,-0.000355402314653,0.0213224553916,,0.0,0.0,0.5530150142
1581526206187282724,,0.00589406601379,-0.000295209309572,0.0211876755952,,0.0,0.0,0.538738269664
1581526206197208515,,0.00732429697353,0.000821749361378,0.0209079419365,,0.0,0.0,0.547135270299
1581526206207084682,,0.00446413383382,-7.73141355053e-05,0.020836482556,,0.0,0.0,0.545472787655
1581526206217041554,,0.00587794343038,0.000289976230077,0.0206463820661,,0.0,0.0,0.549232655221
1581526206226918072,,0.0056232331764,-0.000851017388212,0.0205421590897,,0.0,0.0,0.545093927841
1581526206237378906,,0.00486772739947,0.000557218181445,0.0203414938191,,0.0,0.0,0.542188507859
1581526206247064878,,0.00544437057519,0.000828886585816,0.0200537983532,,0.0,0.0,0.543335297136
1581526206257040393,,0.00707190446414,0.00031350819489,0.0198295258697,,0.0,0.0,0.546030814611
1581526206267025516,,0.00521622654482,-4.95373940366e-05,0.019663911071,,0.0,0.0,0.543503757551
1581526206277070279,,0.00456195353986,0.00011748721275,0.0195826480929,,0.0,0.0,0.551631871539
1581526206287191540,,0.00585452303196,0.000218774519154,0.0192840056032,,0.0,0.0,0.546365660962
1581526206297027591,,0.00480521025659,0.000353923345132,0.0189395716861,,0.0,0.0,0.55028039566
1581526206307085725,,-1.0,-1.0,-0.479847043499,,0.0,0.0,0.544578182318
1581526206317180378,,-0.071896416474,-0.0274579017819,-0.478786666551,,0.0,0.0,0.543857778782
1581526206327001847,,-0.0738247735124,-0.0282935639526,-0.477732517062,,0.0,0.0,0.548627985823
1581526206337168062,,-0.0742513279358,-0.0268195298197,-0.476612039589,,0.0,0.0,0.544209259875
1581526206347017189,,-0.0721547657701,-0.0259898849407,-0.475748292816,,0.0,0.0,0.551728716234
1581526206357126183,,-0.0716295490925,-0.0268056846928,-0.47470046585,,0.0,0.0,0.544639987955
1581526206367416551,,-0.0737444628263,-0.0274288080722,-0.473576545213,,0.0,0.0,0.539874378628
1581526206377455806,,-0.0723412419804,-0.0252743609255,-0.472556221187,,0.0,0.0,0.554176739135
1581526206387597103,,-0.0707453045217,-0.0251372587213,-0.471530441016,,0.0,0.0,0.548066175782
1581526206397257285,,-0.0710002542185,-0.024791280487,-0.470490953898,,0.0,0.0,0.557655355627
1581526206407404067,,-0.0718630911907,-0.023326097754,-0.46971608616,,0.0,0.0,0.543666118557
1581526206417350787,,-0.0693526547062,-0.0233534592604,-0.468794103342,,0.0,0.0,0.552709186698
1581526206427528539,,-0.0697957165285,-0.0248443677297,-0.467701127205,,0.0,0.0,0.550455411466
1581526206437301818,,-0.0705873956752,-0.0213316775914,-0.466776382595,,0.0,0.0,0.547626063955
1581526206447547995,,-0.0679621434222,-0.0241091220216,-0.465639732961,,0.0,0.0,0.54440522339
1581526206457258299,,-0.0677684094899,-0.0202197290919,-0.464671876063,,0.0,0.0,0.554426198438
1581526206467267396,,-0.0694201151137,-0.0221174900617,-0.463649001044,,0.0,0.0,0.548663767273
1581526206477417098,,-0.0680945814724,-0.0206242097004,-0.462579889568,,0.0,0.0,0.550530886845
1581526206487380382,,-0.0666968379295,-0.020863675935,-0.461473541255,,0.0,0.0,0.54580348207
1581526206497398614,,-0.0678997997923,-0.0222105972296,-0.460287244856,,0.0,0.0,0.54859817752
1581526206507602512,,-0.0663315799961,-0.0203315192327,-0.459150620177,,0.0,0.0,0.541552117211
1581526206517208232,,-0.062736420616,-0.0176016430228,-0.457995604907,,0.0,0.0,0.544722973477
1581526206527333902,,-0.0670878605583,-0.0216229027745,-0.45674102279,,0.0,0.0,0.540286164627
1581526206537562549,,-0.0645794231341,-0.0184253924062,-0.455478453867,,0.0,0.0,0.540220632626
1581526206547173394,,-0.0598278374363,-0.0148042875597,-0.4542521547,,0.0,0.0,0.547599688912
1581526206557648702,,-0.0655581925461,-0.0207446516974,-0.452974808686,,0.0,0.0,0.534828631479
1581526206567338153,,-0.0585176339957,-0.0138523134782,-0.451645345953,,0.0,0.0,0.54417325213
1581526206577433872,,-0.062617982166,-0.0185333718752,-0.450288372169,,0.0,0.0,0.535835198154
1581526206587907866,,-0.0617356464723,-0.0173226472613,-0.448910955481,,0.0,0.0,0.527548531138
1581526206597481481,,-0.0533797846261,-0.0106316676493,-0.447484196996,,0.0,0.0,0.556551599624
1581526206607569738,,-0.0626969798682,-0.0166834343222,-0.446061159404,,0.0,0.0,0.537214588897
1581526206617389560,,-0.0522123562826,-0.0114088730646,-0.444740066057,,0.0,0.0,0.541476135395
1581526206627337508,,-0.0600622731934,-0.0154948580441,-0.443334949378,,0.0,0.0,0.541912244844
1581526206637394028,,-0.055313030436,-0.0128009363367,-0.441791028595,,0.0,0.0,0.534682164254
1581526206647382728,,-0.0481358929731,-0.00834789635046,-0.440247672893,,0.0,0.0,0.536859236614
1581526206657342182,,-0.0577205473548,-0.0146743641499,-0.438795933219,,0.0,0.0,0.54117907384
1581526206667459054,,-0.0468683624645,-0.00809396316333,-0.437206575482,,0.0,0.0,0.534493924631
1581526206677340311,,-0.0543641992425,-0.0127713774155,-0.435766055812,,0.0,0.0,0.542986753322
1581526206687377860,,-0.0519579965832,-0.00979356501519,-0.434163091757,,0.0,0.0,0.534453229342
1581526206697419601,,-0.0423439360932,-0.00401243996896,-0.432336730956,,0.0,0.0,0.53779888165
1581526206707379524,,-0.0465696263675,-0.00742412468144,-0.430765398022,,0.0,0.0,0.546485443157
1581526206717327168,,-0.0452678504377,-0.00764415230957,-0.429112741675,,0.0,0.0,0.544264325314
1581526206727448785,,-0.0536421793046,-0.0127065370125,-0.42756235636,,0.0,0.0,0.533393225628
1581526206737301581,,-0.0421421615526,-0.00456957127941,-0.425874304762,,0.0,0.0,0.555622186543
1581526206747204152,,-0.0361156893372,-0.00112402368711,-0.424119154707,,0.0,0.0,0.541931170354
1581526206757295046,,-0.0411731544851,-0.00552016206496,-0.42234445397,,0.0,0.0,0.542023224681
1581526206767551755,,-0.0499039401792,-0.0100649016429,-0.420756799773,,0.0,0.0,0.541105856299
1581526206777737401,,-0.0387874113477,-0.0044129758622,-0.418985446753,,0.0,0.0,0.540976095129
1581526206787555717,,-0.0299678381669,0.00147885025706,-0.416982841534,,0.0,0.0,0.542013096835
1581526206797589450,,-0.04643329101,-0.00674412221019,-0.415274692138,,0.0,0.0,0.554072911947
1581526206807312048,,-0.0279445463211,0.00259408263247,-0.413296539995,,0.0,0.0,0.543481338342
1581526206817394114,,-0.0347077617814,-0.00256172596617,-0.411450497754,,0.0,0.0,0.54121496417
1581526206827267436,,-0.0347384008415,-0.000790927994399,-0.40958983775,,0.0,0.0,0.547620542048
1581526206837576223,,-0.0442806513042,-0.00798473064266,-0.407878873981,,0.0,0.0,0.531787875878
1581526206847179515,,-0.0305776993539,0.000862980229619,-0.405970277288,,0.0,0.0,0.564958124043
1581526206857507609,,-0.0331664598861,-0.000519523861662,-0.404021067376,,0.0,0.0,0.541170844873
1581526206867329099,,-0.0181878527904,0.00771474595976,-0.401914754503,,0.0,0.0,0.553225040483
1581526206877354006,,-0.0293325351313,0.000111554305436,-0.400122281152,,0.0,0.0,0.550749714332
1581526206887521549,,-0.0398600957962,-0.00408529826443,-0.398355729001,,0.0,0.0,0.549434917963
1581526206897488446,,-0.0284758013263,0.000797639193413,-0.396478582756,,0.0,0.0,0.550470806071
1581526206907366147,,-0.0263845472964,0.00136421431993,-0.394601586261,,0.0,0.0,0.555688837817
1581526206917270641,,-0.0131916631773,0.00984664130304,-0.392564969718,,0.0,0.0,0.552017767964
1581526206927179156,,-0.0375508587625,-0.00334015981662,-0.390920217181,,0.0,0.0,0.55534404025
1581526206937579383,,-0.0236372151161,0.00216566616564,-0.389014371004,,0.0,0.0,0.544679474335
1581526206947168949,,-0.00902497284247,0.0110227337458,-0.386995812299,,0.0,0.0,0.559406383604
1581526206957462863,,-0.0378851600607,-0.00259571506355,-0.385210782642,,0.0,0.0,0.552659643549
1581526206967278396,,-0.00778151667449,0.0114117702188,-0.383155308458,,0.0,0.0,0.554708085752
1581526206977241104,,-0.0342942503201,-0.00276543366679,-0.381567799469,,0.0,0.0,0.555010948963
1581526206987709089,,-0.0202885423237,0.00464143653494,-0.379621091874,,0.0,0.0,0.54957762858
1581526206997642987,,-0.0190692014569,0.00655071593903,-0.37765131424,,0.0,0.0,0.56212281239
1581526207007319303,,-0.0196037122068,0.00386404777481,-0.375831151097,,0.0,0.0,0.559293435997
1581526207017438482,,-0.00442460737981,0.0117825588287,-0.373874057155,,0.0,0.0,0.557385620954
1581526207027596991,,-0.0309831261316,8.76972796904e-05,-0.372216559858,,0.0,0.0,0.564588624452
1581526207037571941,,-0.0162008592081,0.00603556239239,-0.370408926766,,0.0,0.0,0.558221224881
1581526207047182707,,-0.00165958701371,0.0136303305464,-0.368323718432,,0.0,0.0,0.565742965377
1581526207057308294,,-0.0307249372186,-0.000323846238368,-0.366631742633,,0.0,0.0,0.559887200648
1581526207067338304,,7.19270471756e-05,0.0141450836039,-0.364621476455,,0.0,0.0,0.568308008417
1581526207077358747,,-0.0277333759267,-0.000149108303871,-0.363083719804,,0.0,0.0,0.56136046416
1581526207087459832,,-0.015348112057,0.00625945971598,-0.361378681151,,0.0,0.0,0.563637742193
1581526207097243368,,0.00139477984192,0.0147395834244,-0.359340236746,,0.0,0.0,0.566482347587
1581526207107596816,,-0.0132619043855,0.0068136309429,-0.35749643366,,0.0,0.0,0.559532333628
1581526207117304674,,-0.012496293109,0.00728759655627,-0.355803756027,,0.0,0.0,0.573820332019
1581526207127283243,,-0.0261150650322,0.00216204156764,-0.354187415232,,0.0,0.0,0.569382927489
1581526207137660598,,-0.012347793505,0.00640397592187,-0.352397639813,,0.0,0.0,0.559319012138
1581526207147318643,,0.00496742860106,0.0157286875568,-0.350483865789,,0.0,0.0,0.581175960365
1581526207157309007,,-0.0099722099695,0.00797927914838,-0.348705726615,,0.0,0.0,0.567977901109
1581526207167396826,,-0.0265473074713,0.00213724066064,-0.347117133885,,0.0,0.0,0.575137165182
1581526207177645400,,-0.00834447989335,0.00796462788483,-0.345330760131,,0.0,0.0,0.567282417125
1581526207187425944,,0.00536739849932,0.0143873690865,-0.343511943691,,0.0,0.0,0.570900290123
1581526207197327698,,-0.0100825410318,0.00902808196452,-0.341775817923,,0.0,0.0,0.584747389817
1581526207207434171,,-0.0083293544132,0.00824961736943,-0.340034079255,,0.0,0.0,0.575429250529
1581526207217299616,,-0.00629910691545,0.00962806451009,-0.338349891393,,0.0,0.0,0.58137686327
1581526207227476698,,-0.0249319264232,0.00316822366908,-0.336718014878,,0.0,0.0,0.575107221261
1581526207237730561,,0.00444535063122,0.0124118288184,-0.334924841452,,0.0,0.0,0.562482722353
1581526207247162818,,-0.0180142576828,0.00513333619503,-0.333409822482,,0.0,0.0,0.607516336113
1581526207257348028,,-0.0087085820926,0.00806253300978,-0.331720726233,,0.0,0.0,0.573446243515
1581526207267243842,,0.00901192904563,0.0149819022402,-0.32991047174,,0.0,0.0,0.589022362401
1581526207277232992,,-0.0202195882521,0.00399739769465,-0.328380837452,,0.0,0.0,0.584623564797
1581526207287711118,,-0.00847757128222,0.00685267307018,-0.326741608343,,0.0,0.0,0.563607569487
1581526207297654931,,-0.006264839395,0.0102779146382,-0.325101895198,,0.0,0.0,0.590948188863
1581526207307486215,,-0.00395360498819,0.0103615664886,-0.323437258939,,0.0,0.0,0.585373784155
1581526207317366084,,0.00900671876345,0.0150455999057,-0.321688687324,,0.0,0.0,0.58579337293
1581526207327407957,,-0.00501821361996,0.00960316855702,-0.320104927618,,0.0,0.0,0.586905296394
1581526207337875494,,-0.00677801874676,0.00784353940162,-0.318552276723,,0.0,0.0,0.580867618479
1581526207347389745,,-0.00202077488604,0.0112034799551,-0.31700040148,,0.0,0.0,0.598624202737
1581526207357422055,,-0.00494600986383,0.0090878539902,-0.315448537855,,0.0,0.0,0.586239983304
1581526207367425952,,-0.00610197044897,0.00953860776928,-0.313820626477,,0.0,0.0,0.591830952205
1581526207377414957,,-0.0171161014043,0.00518048682873,-0.312316821526,,0.0,0.0,0.591011216639
1581526207387429667,,-0.00379625331205,0.0100315431854,-0.310754306207,,0.0,0.0,0.594081872288
1581526207397838052,,0.00693117326613,0.0116527607268,-0.309148845137,,0.0,0.0,0.568891609601
1581526207407410170,,-0.0163557800921,0.00781655027859,-0.307673860698,,0.0,0.0,0.612864699475
1581526207417356206,,0.0116878474839,0.015426405982,-0.30599203842,,0.0,0.0,0.595109307944
1581526207427676108,,-0.0177621625297,0.00416124082474,-0.30453492954,,0.0,0.0,0.591633490571
1581526207437617231,,-0.00321669153528,0.0108516458315,-0.303009307797,,0.0,0.0,0.597551374102
1581526207447364273,,0.0116185794679,0.0143950234787,-0.301421722378,,0.0,0.0,0.591762159765
1581526207457417378,,-0.0180598265595,0.00478315551589,-0.299993279858,,0.0,0.0,0.591467795796
1581526207467401126,,0.012115075235,0.0160280808316,-0.298414499236,,0.0,0.0,0.600922394964
1581526207477521469,,-0.015736441256,0.00537552709909,-0.296914422964,,0.0,0.0,0.588177276432
1581526207487623533,,-0.00288444691654,0.0108576294469,-0.295370120662,,0.0,0.0,0.604405432159
1581526207497327354,,0.0113721233983,0.0139409770106,-0.293921714873,,0.0,0.0,0.599865238014
1581526207507447610,,-0.00292795135159,0.0103169850994,-0.292444161781,,0.0,0.0,0.594643683845
1581526207517368179,,-0.014413215756,0.00567821600924,-0.291025336884,,0.0,0.0,0.594273812783
1581526207527783401,,-0.00492681091516,0.00969348491107,-0.289494837342,,0.0,0.0,0.589352748691
1581526207537895157,,-0.00220905716915,0.0108150830657,-0.287944764924,,0.0,0.0,0.596719662886
1581526207547414211,,0.0138676788672,0.0164613883112,-0.286504392791,,0.0,0.0,0.610523070447
1581526207557619445,,-0.016656637962,0.0055258776155,-0.285039624742,,0.0,0.0,0.587280838011
1581526207567597173,,-0.00147089209063,0.0119792267681,-0.283558297847,,0.0,0.0,0.610219706714
1581526207577587133,,-0.00221894384743,0.010717696365,-0.282034486763,,0.0,0.0,0.597434943683
1581526207587639578,,-0.0015472130697,0.0109469545953,-0.280504465687,,0.0,0.0,0.600367530739
1581526207597571355,,-0.00253701131767,0.0108331118104,-0.27895913668,,0.0,0.0,0.603054853162
1581526207607585481,,-0.000864848032802,0.0116669040528,-0.277505089468,,0.0,0.0,0.606492870992
1581526207617856681,,-0.00218403872546,0.0105005170523,-0.276031800653,,0.0,0.0,0.601334426723
1581526207627684787,,-0.0012384018882,0.0109197753532,-0.274536788949,,0.0,0.0,0.601901213996
1581526207637713735,,-0.00147537309719,0.0113226560286,-0.272976373934,,0.0,0.0,0.601276662013
1581526207647279475,,-0.00149181424554,0.0116005694075,-0.271427284349,,0.0,0.0,0.611485241579
1581526207657639772,,-0.000786298829597,0.0105207073241,-0.269862405913,,0.0,0.0,0.598682039696
1581526207667455968,,0.010956778018,0.0147481168415,-0.268360685238,,0.0,0.0,0.608045458575
1581526207677547776,,-0.015005221818,0.00847113527772,-0.266845618239,,0.0,0.0,0.605141059812
1581526207687365863,,0.00996544454071,0.0144540470077,-0.265224278923,,0.0,0.0,0.60426879386
1581526207697637491,,-0.0125378000673,0.00834598024185,-0.263746413282,,0.0,0.0,0.604747935818
1581526207707631673,,-0.00235378928193,0.0120957219666,-0.262191571924,,0.0,0.0,0.611376417314
1581526207717552713,,0.0106030045913,0.0149087897311,-0.260600362475,,0.0,0.0,0.604663754542
1581526207727283829,,-0.0116408854748,0.00911848974358,-0.259085055944,,0.0,0.0,0.61321117094
1581526207737618122,,0.00719307408792,0.0137408213239,-0.257477202958,,0.0,0.0,0.59407819947
1581526207747369984,,-0.000772677353961,0.0136583871834,-0.255902555828,,0.0,0.0,0.623122567344
1581526207757679270,,-0.0126174622246,0.00924184523862,-0.254407770532,,0.0,0.0,0.60580506423
1581526207767812791,,-0.001006377324,0.011909260137,-0.252866456261,,0.0,0.0,0.601448379636
1581526207777377914,,-0.00307210838678,0.0120520117549,-0.251294531368,,0.0,0.0,0.610691969488
1581526207787481223,,0.0010083070299,0.0132599683322,-0.249707221389,,0.0,0.0,0.610151080487
1581526207797499898,,3.65864169615e-05,0.0130710030999,-0.24810881559,,0.0,0.0,0.611587177954
1581526207807482673,,-0.00367863479449,0.0120391792504,-0.246522852791,,0.0,0.0,0.607464870587
1581526207817517075,,0.00849702606047,0.0147569838008,-0.244866759802,,0.0,0.0,0.603625649592
1581526207827369005,,-0.0103753966374,0.010092085974,-0.243448833191,,0.0,0.0,0.611617655973
1581526207837470849,,0.0107824814104,0.0161170543768,-0.24170438384,,0.0,0.0,0.606905665545
1581526207847276097,,-0.00240101767902,0.0132836024212,-0.240061712185,,0.0,0.0,0.609330142007
1581526207857478585,,-0.0112657299591,0.0111254997977,-0.238565390492,,0.0,0.0,0.599355302598
1581526207867274585,,0.00913849649181,0.0159947631852,-0.23687456316,,0.0,0.0,0.609207432435
1581526207877592501,,-0.0133662546886,0.00971634423808,-0.23536968699,,0.0,0.0,0.599414677211
1581526207887496315,,0.000164284257193,0.0145930420606,-0.233723013215,,0.0,0.0,0.605879222068
1581526207897385369,,0.00972613438215,0.0152713912166,-0.232065344342,,0.0,0.0,0.604569870166
1581526207907524070,,-0.0133158956163,0.0112176262777,-0.230558339145,,0.0,0.0,0.603286087025
1581526207917284124,,4.48281240644e-05,0.0131851163141,-0.228955683568,,0.0,0.0,0.602304743985
1581526207927568827,,0.000969760269653,0.0143514289829,-0.22740776969,,0.0,0.0,0.599409602138
1581526207937523487,,-0.00290694785538,0.0131281155439,-0.22589124389,,0.0,0.0,0.603157921013
1581526207947346759,,0.00968529911748,0.0164553942395,-0.22412680281,,0.0,0.0,0.605142907525
1581526207957474221,,-0.0103717028125,0.0121114295639,-0.222627061033,,0.0,0.0,0.59618969076
1581526207968033730,,-0.000673772105118,0.0124520906971,-0.221015828623,,0.0,0.0,0.596829139815
1581526207977861791,,-0.00182139612216,0.0140097774365,-0.21947718334,,0.0,0.0,0.595306641037
1581526207987690156,,0.00900514921968,0.016993058891,-0.217854625283,,0.0,0.0,0.598779307432
1581526207997431704,,0.00135442607967,0.0146309958133,-0.216259489737,,0.0,0.0,0.606269101076
1581526208007846878,,-0.0117851350909,0.0125830487101,-0.214738130075,,0.0,0.0,0.595819437058
1581526208017419401,,0.00945938678028,0.0168912532191,-0.213061008532,,0.0,0.0,0.598818566863
1581526208027724665,,-0.00809964667638,0.0124011314354,-0.211612390274,,0.0,0.0,0.596922750688
1581526208037961898,,0.00904453396925,0.0164754673826,-0.209981015188,,0.0,0.0,0.593577335369
1581526208047392170,,-0.0105507372474,0.0131885573293,-0.208499170295,,0.0,0.0,0.606018945863
1581526208057451557,,0.00120317968232,0.0149602395782,-0.206842600833,,0.0,0.0,0.600063850055
1581526208067615399,,0.00981699655458,0.0169245551628,-0.205200258139,,0.0,0.0,0.594307724921
1581526208077427737,,-0.0093699259251,0.01479238623,-0.203708520042,,0.0,0.0,0.605310246058
1581526208087844125,,0.000195030494936,0.0127439058653,-0.202225915504,,0.0,0.0,0.584919193183
1581526208097944143,,0.000901290607391,0.01590367969,-0.200663598376,,0.0,0.0,0.600801482217
1581526208107772275,,0.00129973346382,0.0157637071621,-0.199044674859,,0.0,0.0,0.599942233524
1581526208117548653,,0.00985332611023,0.0169232879121,-0.197407482183,,0.0,0.0,0.59565945225
1581526208127814375,,-0.00717545461906,0.014298933308,-0.195977261272,,0.0,0.0,0.598334968201
1581526208137826203,,0.00151750598895,0.0160267852446,-0.194437213337,,0.0,0.0,0.595159451802
1581526208147511476,,0.00975041690329,0.0165951775787,-0.192762395152,,0.0,0.0,0.600767267334
1581526208157714134,,-0.00776307908586,0.0151921674143,-0.191267647231,,0.0,0.0,0.59390177353
1581526208167395095,,0.0111167588265,0.0172064579231,-0.189672910815,,0.0,0.0,0.59790104491
1581526208177444555,,-0.00857208750781,0.0149832026908,-0.18823393098,,0.0,0.0,0.597410150002
1581526208187708182,,0.00298370239964,0.0166754323833,-0.186744759715,,0.0,0.0,0.595472482263
1581526208197642312,,9.436565521e-05,0.0155306215291,-0.18521856516,,0.0,0.0,0.587761278662
1581526208207564279,,0.00226816917277,0.0161028616138,-0.183655537441,,0.0,0.0,0.596375105431
1581526208217530052,,0.0122487886192,0.0185227672593,-0.182076431012,,0.0,0.0,0.60020047042
1581526208227820342,,-0.00805881530414,0.0145620788245,-0.180657862003,,0.0,0.0,0.588573296721
1581526208238157252,,0.0041820893667,0.0174833561779,-0.17909357947,,0.0,0.0,0.595030161337
1581526208247532445,,0.010850353305,0.0170221682981,-0.177468359152,,0.0,0.0,0.596193337059
1581526208257603450,,-0.00713022753656,0.0159025353794,-0.175981650059,,0.0,0.0,0.595290274674
1581526208267899640,,0.0103333254805,0.0162131339832,-0.174424171694,,0.0,0.0,0.578679909439
1581526208277498038,,-0.00526329368255,0.0178699661766,-0.172985582315,,0.0,0.0,0.608968033363
1581526208287621181,,0.00415771282585,0.0169297612446,-0.171479892729,,0.0,0.0,0.592263338196
